City_ID,City,Country,Date,Lat,Lng,Max Temp,Humidity,Cloudiness,Wind Speed
0,Alofi,NU,2021-04-01 14:30:50,-19.0595,-169.9187,77.0,94,5,4.61
1,Chuy,UY,2021-04-01 14:30:50,-33.6971,-53.4616,71.02,54,48,8.72
2,Bluff,NZ,2021-04-01 14:30:51,-46.6,168.3333,61.29,73,100,31.07
3,Ponta Do Sol,PT,2021-04-01 14:30:51,32.6667,-17.1,68.0,73,40,6.91
4,Ancud,CL,2021-04-01 14:30:52,-41.8697,-73.8203,57.0,100,90,3.44
5,Galveston,US,2021-04-01 14:30:52,29.3669,-94.9669,60.01,41,1,18.41
6,Albany,US,2021-04-01 14:29:08,42.6001,-73.9662,36.0,71,100,1.01
7,Severo-Kurilsk,RU,2021-04-01 14:30:53,50.6789,156.125,32.04,93,98,28.05
8,Inhambane,MZ,2021-04-01 14:30:54,-23.865,35.3833,84.2,51,20,9.22
9,Vite,IN,2021-04-01 14:30:54,17.2833,74.55,82.09,43,8,16.44
10,Rikitea,PF,2021-04-01 14:30:55,-23.1203,-134.9692,74.98,81,100,10.65
11,Ushuaia,AR,2021-04-01 14:30:56,-54.8,-68.3,51.8,62,0,3.44
12,Punta Arenas,CL,2021-04-01 14:30:57,-53.15,-70.9167,50.0,76,0,9.22
13,Butaritari,KI,2021-04-01 14:30:57,3.0707,172.7902,81.97,79,58,16.04
14,Henties Bay,NA,2021-04-01 14:30:58,-22.116,14.2845,72.0,76,33,10.0
15,Walvis Bay,NA,2021-04-01 14:30:58,-22.9575,14.5053,87.8,37,0,13.8
16,Mataura,NZ,2021-04-01 14:30:59,-46.1927,168.8643,61.72,56,100,7.78
17,San Policarpo,PH,2021-04-01 14:30:59,12.1791,125.5072,81.37,70,61,10.85
18,Hobart,AU,2021-04-01 14:30:04,-42.8794,147.3294,59.0,77,90,8.05
19,Xingcheng,CN,2021-04-01 14:31:01,40.6167,120.7167,50.2,43,100,2.46
20,Mitsamiouli,KM,2021-04-01 14:31:02,-11.3847,43.2844,87.8,70,20,11.5
21,Auch,FR,2021-04-01 14:31:03,43.65,0.5833,72.0,56,99,3.0
22,Jamestown,US,2021-04-01 14:27:38,42.097,-79.2353,30.0,74,90,9.22
23,Vila Velha,BR,2021-04-01 14:31:04,-20.3297,-40.2925,80.6,61,0,11.5
24,Arraial Do Cabo,BR,2021-04-01 14:31:04,-22.9661,-42.0278,84.2,54,0,21.85
25,Pangnirtung,CA,2021-04-01 14:31:05,66.1451,-65.7125,-11.2,77,90,18.41
26,Georgetown,MY,2021-04-01 14:27:18,5.4112,100.3354,86.0,79,20,1.14
27,Bredasdorp,ZA,2021-04-01 14:31:06,-34.5322,20.0403,71.6,40,97,10.36
28,Kaa-Khem,RU,2021-04-01 14:31:06,51.6833,94.7333,14.52,83,3,4.03
29,Dunedin,NZ,2021-04-01 14:31:07,-45.8742,170.5036,63.0,54,100,1.99
30,Devonport,AU,2021-04-01 14:31:07,-41.1667,146.35,59.63,74,100,4.85
31,Ilave,PE,2021-04-01 14:31:08,-16.0833,-69.6667,52.52,48,54,5.41
32,Pak Phanang,TH,2021-04-01 14:31:08,8.3511,100.202,82.4,83,20,2.3
33,Balkanabat,TM,2021-04-01 14:31:09,39.5108,54.3671,65.32,28,4,22.93
34,Hasaki,JP,2021-04-01 14:31:10,35.7333,140.8333,55.4,82,75,8.05
35,Thompson,CA,2021-04-01 14:31:11,55.7435,-97.8558,24.8,68,75,5.75
36,Cape Town,ZA,2021-04-01 14:28:32,-33.9258,18.4232,71.01,52,0,20.71
37,Anadyr,RU,2021-04-01 14:31:12,64.75,177.4833,14.0,79,75,8.95
38,Dallas,US,2021-04-01 14:20:00,32.7668,-96.7836,53.6,35,1,6.91
39,Busselton,AU,2021-04-01 14:31:12,-33.65,115.3333,68.0,90,87,6.73
40,Luanda,AO,2021-04-01 14:30:05,-8.8368,13.2343,87.8,62,40,11.5
41,Puerto Ayora,EC,2021-04-01 14:31:13,-0.7393,-90.3518,80.6,83,20,11.5
42,Saint-Philippe,RE,2021-04-01 14:31:14,-21.3585,55.7679,80.6,69,75,21.85
43,Yumen,CN,2021-04-01 14:31:14,40.2833,97.2,42.67,33,100,10.16
44,Barrow,US,2021-04-01 14:30:05,71.2906,-156.7887,-11.2,70,1,12.66
45,Hilo,US,2021-04-01 14:31:15,19.7297,-155.09,66.0,85,75,5.75
46,Lanigan,CA,2021-04-01 14:31:15,51.8501,-105.0344,28.4,74,57,16.11
47,Kurilsk,RU,2021-04-01 14:31:16,45.2333,147.8833,29.23,94,56,7.76
48,Moba,CN,2021-04-01 14:31:16,33.2288,105.0179,40.77,82,100,5.7
49,Provideniya,RU,2021-04-01 14:31:17,64.3833,-173.3,0.59,92,95,0.94
50,Isangel,VU,2021-04-01 14:31:17,-19.55,169.2667,77.56,87,99,12.01
51,Corbelia,BR,2021-04-01 14:31:18,-24.7989,-53.3067,73.4,49,0,8.05
52,Samfya,ZM,2021-04-01 14:31:18,-11.3649,29.5565,72.82,77,51,5.1
53,Beaverlodge,CA,2021-04-01 14:31:19,55.2166,-119.4361,26.6,86,75,3.44
54,Boguchany,RU,2021-04-01 14:31:20,58.3814,97.4531,16.07,92,43,3.29
55,Cidreira,BR,2021-04-01 14:31:20,-30.1811,-50.2056,73.94,56,23,10.18
56,Kodiak,US,2021-04-01 14:31:21,57.79,-152.4072,24.8,36,1,25.32
57,Port Alfred,ZA,2021-04-01 14:31:21,-33.5906,26.891,68.94,71,44,12.5
58,Samarai,PG,2021-04-01 14:31:22,-10.6167,150.6667,80.91,81,99,5.91
59,Mehamn,NO,2021-04-01 14:31:22,71.0357,27.8492,32.5,93,100,3.91
60,Geraldton,AU,2021-04-01 14:31:15,-28.7667,114.6,75.2,88,0,8.05
61,Khatanga,RU,2021-04-01 14:31:23,71.9667,102.5,-33.75,100,6,2.91
62,Pevek,RU,2021-04-01 14:31:24,69.7008,170.3133,-13.32,97,80,0.63
63,Yar-Sale,RU,2021-04-01 14:31:24,66.8333,70.8333,25.74,96,100,15.21
64,Atuona,PF,2021-04-01 14:31:25,-9.8,-139.0333,79.84,81,100,17.43
65,Bengkulu,ID,2021-04-01 14:31:25,-3.8004,102.2655,75.85,90,99,7.47
66,Vaini,TO,2021-04-01 14:31:26,-21.2,-175.2,78.8,94,75,3.44
67,Sahuaripa,MX,2021-04-01 14:31:26,29.05,-109.2333,73.9,15,51,2.24
68,Vanimo,PG,2021-04-01 14:31:27,-2.6741,141.3028,78.91,83,95,1.57
69,Kirkwall,GB,2021-04-01 14:31:09,58.9848,-2.9587,46.4,61,20,8.05
70,Dicabisagan,PH,2021-04-01 14:31:27,17.0818,122.4157,76.39,84,18,3.83
71,Vung Tau,VN,2021-04-01 14:27:41,10.346,107.0843,80.94,79,82,10.38
72,Baturaja,ID,2021-04-01 14:31:28,-4.1333,104.1667,73.33,96,100,1.81
73,Snezhnogorsk,RU,2021-04-01 14:31:28,69.1933,33.2531,33.8,93,75,8.95
74,Namatanai,PG,2021-04-01 14:31:29,-3.6667,152.4333,79.84,83,90,6.73
75,Saint George,US,2021-04-01 14:29:42,37.1041,-113.5841,41.0,30,1,3.44
76,Gariaband,IN,2021-04-01 14:31:30,20.635,82.0614,93.2,36,7,5.75
77,Ambilobe,MG,2021-04-01 14:31:30,-13.2,49.05,78.58,83,89,1.32
78,Aykhal,RU,2021-04-01 14:31:31,66.0,111.5,-14.71,98,100,8.95
79,Esperance,AU,2021-04-01 14:31:31,-33.8667,121.9,60.8,94,40,4.61
80,Los Llanos De Aridane,ES,2021-04-01 14:31:32,28.6585,-17.9182,73.4,56,20,6.91
81,Egvekinot,RU,2021-04-01 14:31:32,66.3167,-179.1667,-0.92,97,100,3.2
82,Chokurdakh,RU,2021-04-01 14:31:33,70.6333,147.9167,-12.84,99,93,4.34
83,Villa Carlos Paz,AR,2021-04-01 14:31:33,-31.4241,-64.4978,71.01,68,75,10.36
84,Sandwick,GB,2021-04-01 14:31:34,60.0,-1.25,44.6,65,75,12.66
85,Gunjur,GM,2021-04-01 14:31:34,13.2019,-16.7339,89.6,43,0,9.22
86,Sampit,ID,2021-04-01 14:31:35,-2.5333,112.95,76.03,96,98,2.24
87,Nikolskoye,RU,2021-04-01 14:31:35,59.7035,30.7861,46.4,53,40,17.9
88,Valdemarpils,LV,2021-04-01 14:31:36,57.3707,22.5919,41.0,93,0,11.5
89,Nanortalik,GL,2021-04-01 14:31:36,60.1432,-45.2371,37.04,83,61,10.56
90,Dudinka,RU,2021-04-01 14:31:36,69.4058,86.1778,-17.75,97,19,6.6
91,Tara,RU,2021-04-01 14:31:37,56.8944,74.371,28.53,87,100,16.33
92,Finschhafen,PG,2021-04-01 14:31:37,-6.6024,147.8681,80.74,81,98,7.43
93,Mar Del Plata,AR,2021-04-01 14:29:11,-38.0023,-57.5575,66.99,68,75,9.22
94,Cutro,IT,2021-04-01 14:31:38,39.0353,16.9819,68.0,37,0,9.22
95,Hays,US,2021-04-01 14:31:39,30.0502,-98.0336,55.99,53,0,1.01
96,Thongwa,MM,2021-04-01 14:31:40,16.7619,96.5278,87.8,58,20,9.22
97,Avarua,CK,2021-04-01 14:31:40,-21.2078,-159.775,77.0,83,9,2.3
98,Port Elizabeth,ZA,2021-04-01 14:31:40,-33.918,25.5701,68.0,73,20,13.8
99,Westport,US,2021-04-01 14:26:46,41.1415,-73.3579,44.01,75,90,12.66
100,Meulaboh,ID,2021-04-01 14:31:42,4.1363,96.1285,77.94,76,100,4.97
101,Jiuquan,CN,2021-04-01 14:31:42,39.7432,98.5174,42.35,45,100,9.64
102,Touros,BR,2021-04-01 14:31:42,-5.1989,-35.4608,86.0,62,40,14.97
103,Ribeira Grande,PT,2021-04-01 14:31:06,38.5167,-28.7,62.6,82,40,17.27
104,Mvomero,TZ,2021-04-01 14:31:44,-6.25,38.6667,84.2,74,40,21.85
105,Wanaka,NZ,2021-04-01 14:31:45,-44.7,169.15,57.99,64,100,5.3
106,Hermanus,ZA,2021-04-01 14:31:05,-34.4187,19.2345,71.01,52,67,7.0
107,Lata,PT,2021-04-01 14:31:45,40.1629,-8.3327,64.99,82,93,1.01
108,Margate,GB,2021-04-01 14:30:35,51.3813,1.3862,46.0,72,13,8.01
109,Kedrovyy,RU,2021-04-01 14:31:46,56.1667,91.8167,30.2,74,40,13.42
110,Thinadhoo,MV,2021-04-01 14:31:47,0.5333,72.9333,83.86,79,100,15.46
111,Moussoro,TD,2021-04-01 14:31:47,13.6408,16.4901,94.01,4,87,14.12
112,Dombas,NO,2021-04-01 14:31:48,62.0696,9.1235,34.21,75,58,6.87
113,Bara,NG,2021-04-01 14:31:48,10.3744,10.7288,95.0,10,43,5.75
114,Mayo,US,2021-04-01 14:31:49,38.8876,-76.5119,46.0,81,75,14.97
115,Wagar,SD,2021-04-01 14:31:49,16.1525,36.2032,97.66,22,19,15.95
116,Lodwar,KE,2021-04-01 14:31:50,3.1191,35.5973,98.44,20,24,14.9
117,Sorong,ID,2021-04-01 14:31:50,-0.8833,131.25,81.61,77,100,3.42
118,Batagay,RU,2021-04-01 14:31:51,67.6333,134.6333,9.81,97,100,2.26
119,Vila,PT,2021-04-01 14:31:51,42.0304,-8.1588,61.0,85,99,7.0
120,Dikson,RU,2021-04-01 14:31:52,73.5069,80.5464,-4.31,70,100,11.5
121,Kruisfontein,ZA,2021-04-01 14:31:52,-34.0033,24.7314,68.0,63,99,5.99
122,Lixourion,GR,2021-04-01 14:31:53,38.2019,20.4314,66.2,52,20,8.05
123,Obo,CF,2021-04-01 14:31:53,5.3998,26.4869,91.35,30,86,2.42
124,Faanui,PF,2021-04-01 14:31:54,-16.4833,-151.75,81.37,69,98,5.03
125,Saskylakh,RU,2021-04-01 14:31:54,71.9167,114.0833,-34.13,100,100,5.12
126,Coleraine,GB,2021-04-01 14:31:55,55.1333,-6.6667,53.6,71,75,9.22
127,San Carlos De Bariloche,AR,2021-04-01 14:28:38,-41.1456,-71.3082,57.2,72,75,5.75
128,Komsomolskiy,UZ,2021-04-01 14:31:55,40.4272,71.7189,42.8,45,21,16.11
129,East London,ZA,2021-04-01 14:31:56,-33.0153,27.9116,66.2,68,20,11.5
130,Roebourne,AU,2021-04-01 14:31:03,-20.7833,117.1333,84.0,63,0,1.88
131,Kantang,TH,2021-04-01 14:31:57,7.4054,99.5156,84.2,70,20,3.44
132,Qaanaaq,GL,2021-04-01 14:31:57,77.484,-69.3632,3.87,88,100,4.56
133,Pacatuba,BR,2021-04-01 14:31:58,-3.9842,-38.6203,88.0,66,75,13.8
134,Hillsborough,US,2021-04-01 14:31:58,37.5741,-122.3794,60.01,54,1,4.74
135,Mana,GF,2021-04-01 14:31:59,5.6592,-53.7767,80.73,75,97,10.29
136,Sao Jose Da Coroa Grande,BR,2021-04-01 14:31:59,-8.8978,-35.1478,85.5,63,83,12.3
137,New Norfolk,AU,2021-04-01 14:32:00,-42.7826,147.0587,57.99,74,100,3.27
138,Puerto Del Rosario,ES,2021-04-01 14:32:00,28.5004,-13.8627,75.2,60,20,14.97
139,Svetlyy,RU,2021-04-01 14:31:24,54.675,20.1347,41.0,87,75,17.9
140,Broome,US,2021-04-01 14:32:01,42.2506,-75.833,34.0,80,75,12.66
141,Sao Felix Do Xingu,BR,2021-04-01 14:32:02,-6.6447,-51.995,83.84,68,100,3.8
142,Bathsheba,BB,2021-04-01 14:32:02,13.2167,-59.5167,84.2,51,20,19.57
143,Longyearbyen,SJ,2021-04-01 14:32:03,78.2186,15.6401,30.2,64,75,6.91
144,Te Anau,NZ,2021-04-01 14:32:03,-45.4167,167.7167,52.39,87,100,4.94
145,Tautira,PF,2021-04-01 14:32:04,-17.7333,-149.15,78.8,78,75,4.61
146,Okha,RU,2021-04-01 14:32:04,53.5739,142.9478,21.11,90,86,6.8
147,Saldanha,ZA,2021-04-01 14:31:06,-33.0117,17.9442,71.6,43,50,17.27
148,Airai,TL,2021-04-01 14:32:05,-8.9266,125.4092,60.22,95,100,2.33
149,Kapaa,US,2021-04-01 14:32:05,22.0752,-159.319,73.4,78,75,13.8
150,Sao Filipe,CV,2021-04-01 14:32:06,14.8961,-24.4956,73.51,69,1,6.22
151,Stornoway,GB,2021-04-01 14:32:06,58.2093,-6.3865,50.0,57,0,8.05
152,Kahului,US,2021-04-01 14:32:07,20.8947,-156.47,69.8,100,1,9.22
153,Tasiilaq,GL,2021-04-01 14:31:11,65.6145,-37.6368,30.2,74,75,8.05
154,Dhidhdhoo,MV,2021-04-01 14:32:08,6.8833,73.1,84.34,77,96,11.63
155,Faruka,PK,2021-04-01 14:32:08,31.8872,72.4144,71.56,10,0,7.78
156,Sanming,CN,2021-04-01 14:32:09,26.2486,117.6186,77.07,74,28,2.98
157,Hella,NO,2021-04-01 14:32:09,67.2,14.4333,37.4,93,90,24.16
158,Lokosovo,RU,2021-04-01 14:32:10,61.1333,74.8167,31.42,97,100,9.6
159,Port Hawkesbury,CA,2021-04-01 14:32:11,45.6169,-61.3485,50.0,81,90,12.66
160,Mecca,SA,2021-04-01 14:32:11,21.4267,39.8261,85.5,29,51,15.99
161,Castro,BR,2021-04-01 14:32:12,-24.7911,-50.0119,69.4,43,39,0.92
162,Toamasina,MG,2021-04-01 14:32:12,-18.1667,49.3833,80.6,83,75,9.22
163,Talnakh,RU,2021-04-01 14:32:13,69.4865,88.3972,-13.31,76,1,6.29
164,Lubumbashi,CD,2021-04-01 14:31:08,-11.6609,27.4794,70.14,89,87,4.63
165,Pobe,BJ,2021-04-01 14:32:14,6.9801,2.6649,88.0,54,86,11.41
166,Carnarvon,AU,2021-04-01 14:32:14,-24.8667,113.6333,80.6,89,75,8.05
167,Pishin,PK,2021-04-01 14:32:15,30.5803,66.9961,64.9,14,0,6.67
168,Ketchikan,US,2021-04-01 14:32:15,55.3422,-131.6461,33.8,100,75,8.05
169,Ailigandi,PA,2021-04-01 14:32:16,9.2333,-78.0167,82.08,80,60,11.88
170,Marsh Harbour,BS,2021-04-01 14:32:17,26.5412,-77.0636,77.25,72,78,9.13
171,Otavalo,EC,2021-04-01 14:32:17,0.2333,-78.2667,60.8,72,20,4.61
172,Lagoa Vermelha,BR,2021-04-01 14:32:17,-28.2086,-51.5258,66.83,57,37,5.68
173,Ulaangom,MN,2021-04-01 14:32:18,49.9811,92.0667,29.71,46,12,1.88
174,Guerrero Negro,MX,2021-04-01 14:32:18,27.9769,-114.0611,66.22,48,3,3.98
175,Pisco,PE,2021-04-01 14:32:19,-13.7,-76.2167,71.6,73,0,4.61
176,Sergeyevka,KZ,2021-04-01 14:32:19,53.88,67.4158,30.31,86,100,21.09
177,Katsuura,JP,2021-04-01 14:32:20,35.1333,140.3,59.0,77,75,12.66
178,Bulolo,PG,2021-04-01 14:28:12,-7.2,146.65,72.07,96,100,0.56
179,Tazmalt,DZ,2021-04-01 14:32:21,36.3868,4.3989,79.84,23,53,8.23
180,Marquette,US,2021-04-01 14:31:49,46.5333,-87.6335,26.01,66,65,1.99
181,Fortuna,US,2021-04-01 14:32:22,40.5982,-124.1573,44.6,76,1,10.36
182,Klaksvik,FO,2021-04-01 14:32:22,62.2266,-6.589,44.6,87,75,17.27
183,Mercedes,AR,2021-04-01 14:32:23,-34.6515,-59.4307,73.0,74,1,3.0
184,Luderitz,NA,2021-04-01 14:32:23,-26.6481,15.1594,76.41,55,1,16.58
185,Krasne,UA,2021-04-01 14:32:24,49.9145,24.6134,69.8,43,40,13.42
186,Mataram,ID,2021-04-01 14:32:24,-8.5833,116.1167,78.8,100,40,1.14
187,Adrar,MR,2021-04-01 14:32:25,20.5022,-10.0711,100.26,3,89,9.37
188,Cherskiy,RU,2021-04-01 14:32:25,68.75,161.3,-20.4,97,5,3.04
189,Nhulunbuy,AU,2021-04-01 14:32:26,-12.2333,136.7667,80.6,83,75,9.22
190,Ribeira Brava,PT,2021-04-01 14:32:26,32.65,-17.0667,68.0,73,40,6.91
191,Jalu,LY,2021-04-01 14:32:27,29.0331,21.5482,69.75,25,3,8.52
192,Grand Gaube,MU,2021-04-01 14:32:27,-20.0064,57.6608,81.0,76,17,1.99
193,Miri,MY,2021-04-01 14:32:28,4.4148,114.0089,78.8,83,20,3.44
194,Salalah,OM,2021-04-01 14:32:28,17.0151,54.0924,87.8,58,0,5.75
195,Upernavik,GL,2021-04-01 14:32:29,72.7868,-56.1549,25.61,66,100,6.58
196,Kaifeng,CN,2021-04-01 14:32:30,34.7911,114.3483,57.2,72,90,4.47
197,Damaturu,NG,2021-04-01 14:32:31,11.747,11.9608,97.43,8,39,9.75
198,Lavrentiya,RU,2021-04-01 14:32:32,65.5833,-171.0,-6.57,88,100,1.05
199,Fort-Shevchenko,KZ,2021-04-01 14:32:32,44.5086,50.263,55.36,37,42,14.63
200,Lompoc,US,2021-04-01 14:32:33,34.6391,-120.4579,53.6,66,1,6.91
201,Valley City,US,2021-04-01 14:27:44,46.9233,-98.0032,28.4,50,1,14.97
202,Half Moon Bay,US,2021-04-01 14:32:34,37.4636,-122.4286,60.01,61,1,5.5
203,Kaitangata,NZ,2021-04-01 14:32:34,-46.2817,169.8464,61.0,54,100,1.99
204,Olafsvik,IS,2021-04-01 14:32:35,64.8945,-23.7142,41.07,85,99,15.9
205,Bethel,US,2021-04-01 14:32:35,41.3712,-73.414,41.0,89,100,3.0
206,Mangalia,RO,2021-04-01 14:32:36,43.8,28.5833,59.0,58,20,11.5
207,Beringovskiy,RU,2021-04-01 14:32:36,63.05,179.3167,14.76,92,100,7.49
208,Puerto Quijarro,BO,2021-04-01 14:32:36,-17.7833,-57.7667,96.37,33,65,1.95
209,Matagami,CA,2021-04-01 14:29:14,49.7502,-77.6328,8.6,72,40,11.5
210,Pinyug,RU,2021-04-01 14:32:37,60.251,47.7842,33.42,88,61,6.2
211,Tignere,CM,2021-04-01 14:32:38,7.3667,12.65,89.28,11,98,5.12
212,Jiayuguan,CN,2021-04-01 14:32:38,39.8167,98.3,40.64,41,100,5.73
213,Show Low,US,2021-04-01 14:32:39,34.2542,-110.0298,37.4,25,1,3.69
214,Yalta,UA,2021-04-01 14:32:39,44.5,34.1667,54.0,54,88,2.39
215,Mahebourg,MU,2021-04-01 14:32:40,-20.4081,57.7,82.4,78,40,6.91
216,Kontagora,NG,2021-04-01 14:32:40,10.3999,5.4695,101.41,8,30,3.09
217,Tazovskiy,RU,2021-04-01 14:31:34,67.4667,78.7,6.46,88,100,21.3
218,Berlevag,NO,2021-04-01 14:32:41,70.8578,29.0864,33.17,83,100,5.77
219,Kieta,PG,2021-04-01 14:32:42,-6.2167,155.6333,78.94,84,74,5.14
220,Kalengwa,ZM,2021-04-01 14:32:43,-13.4659,25.0027,73.38,76,75,5.99
221,Tiznit,MA,2021-04-01 14:32:43,29.5833,-9.5,74.55,33,29,13.29
222,Amahai,ID,2021-04-01 14:32:44,-3.3333,128.9167,78.78,85,36,3.53
223,Varva,UA,2021-04-01 14:32:44,50.495,32.7197,55.8,66,38,11.41
224,Sao Gabriel Da Cachoeira,BR,2021-04-01 14:32:45,-0.1303,-67.0892,80.6,89,75,3.44
225,Bud,US,2021-04-01 14:31:04,39.447,-86.1758,33.01,74,90,12.66
226,Eureka,US,2021-04-01 14:32:45,40.8021,-124.1637,48.2,57,1,5.75
227,Dossor,KZ,2021-04-01 14:32:46,47.5272,52.9811,49.69,28,0,10.6
228,Uniontown,US,2021-04-01 14:28:46,39.9001,-79.7164,35.01,55,97,7.0
229,Havoysund,NO,2021-04-01 14:32:47,70.9963,24.6622,35.6,80,40,4.61
230,Clyde River,CA,2021-04-01 14:32:47,70.4692,-68.5914,-13.0,77,90,33.38
231,Bilma,NE,2021-04-01 14:32:48,18.6853,12.9164,88.81,6,0,12.53
232,Karratha,AU,2021-04-01 14:32:48,-20.7377,116.8463,84.43,63,0,3.33
233,Hastings,GB,2021-04-01 14:32:48,50.8552,0.5729,54.0,73,3,8.99
234,Coquimbo,CL,2021-04-01 14:31:36,-29.9533,-71.3436,59.0,77,90,3.44
235,Tiksi,RU,2021-04-01 14:32:50,71.6872,128.8694,-5.44,99,100,8.43
236,Lebu,CL,2021-04-01 14:32:50,-37.6167,-73.65,60.22,80,86,9.73
237,Mackay,AU,2021-04-01 14:31:51,-21.15,149.2,71.6,78,40,10.36
238,Port Hardy,CA,2021-04-01 14:32:51,50.6996,-127.4199,39.2,100,90,6.78
239,Kenai,US,2021-04-01 14:30:15,60.5544,-151.2583,19.4,63,90,5.75
240,Poum,NC,2021-04-01 14:32:52,-20.2333,164.0167,73.74,85,100,7.23
241,Kloulklubed,PW,2021-04-01 14:32:52,7.0419,134.2556,77.0,94,75,8.46
242,Tamandare,BR,2021-04-01 14:32:53,-8.7597,-35.1047,86.02,61,74,11.1
243,Kisanga,TZ,2021-04-01 14:32:53,-7.4362,37.7034,77.45,90,95,2.17
244,Inuvik,CA,2021-04-01 14:32:54,68.3499,-133.7218,-13.0,70,99,4.61
245,Jumla,NP,2021-04-01 14:32:54,29.2747,82.1838,42.62,25,3,6.51
246,Kaeng Khoi,TH,2021-04-01 14:32:55,14.5862,100.9976,89.01,57,60,11.9
247,Izhma,RU,2021-04-01 14:32:55,65.0083,53.9113,30.58,97,100,4.18
248,Deputatskiy,RU,2021-04-01 14:32:56,69.3,139.9,-3.91,98,100,0.27
249,Kisoro,UG,2021-04-01 14:32:56,-1.2854,29.685,66.36,79,86,2.66
250,Vao,NC,2021-04-01 14:32:57,-22.6667,167.4833,75.54,76,100,17.27
251,Bayir,TR,2021-04-01 14:32:57,37.2687,28.2167,53.6,71,75,3.44
252,Ishigaki,JP,2021-04-01 14:32:58,24.3448,124.1572,76.73,91,36,9.98
253,Port Macquarie,AU,2021-04-01 14:32:59,-31.4333,152.9167,63.0,99,46,1.01
254,Grindavik,IS,2021-04-01 14:32:59,63.8424,-22.4338,42.8,81,90,16.11
255,Nemuro,JP,2021-04-01 14:33:00,43.3236,145.575,35.55,90,72,5.32
256,Ippy,CF,2021-04-01 14:33:00,6.2679,21.2247,90.95,32,97,7.74
257,Torbay,CA,2021-04-01 14:33:01,47.6666,-52.7314,44.01,45,75,2.3
258,Laguna,US,2021-04-01 14:31:12,38.421,-121.4238,52.0,76,1,4.23
259,Broken Hill,AU,2021-04-01 14:33:02,-31.95,141.4333,66.2,42,0,6.91
260,Lasa,IT,2021-04-01 14:33:03,46.6166,10.7002,78.8,39,0,6.91
261,Riverton,US,2021-04-01 14:30:20,40.5219,-111.9391,39.99,64,1,3.44
262,Pacific Grove,US,2021-04-01 14:33:04,36.6177,-121.9166,60.8,33,1,10.36
263,Paamiut,GL,2021-04-01 14:33:04,61.994,-49.6678,35.51,88,100,42.52
264,Tuktoyaktuk,CA,2021-04-01 14:33:04,69.4541,-133.0374,-23.8,69,20,11.5
265,Wum,CM,2021-04-01 14:33:05,6.3833,10.0667,87.76,17,100,6.24
266,Davila,PH,2021-04-01 14:33:06,18.4726,120.5763,81.01,75,9,2.3
267,Lumeje,AO,2021-04-01 14:33:06,-11.55,20.7833,77.14,68,73,4.03
268,Derzhavinsk,KZ,2021-04-01 14:33:07,51.1,66.3167,25.79,92,100,13.6
269,Maromitsa,RU,2021-04-01 14:33:07,59.8683,48.0123,32.74,90,83,5.21
270,Plettenberg Bay,ZA,2021-04-01 14:33:08,-34.0527,23.3716,63.64,70,91,4.45
271,Heilbron,ZA,2021-04-01 14:33:08,-27.2812,27.9709,75.07,34,88,10.85
272,Tutoia,BR,2021-04-01 14:33:09,-2.7619,-42.2744,87.8,70,40,16.11
273,Victoria,HK,2021-04-01 14:33:09,22.2855,114.1577,79.0,85,80,1.01
274,Kasur,PK,2021-04-01 14:32:44,31.1156,74.4467,80.6,21,0,16.11
275,Bilibino,RU,2021-04-01 14:32:17,68.0546,166.4372,-6.45,93,90,7.14
276,Aklavik,CA,2021-04-01 14:33:10,68.2191,-135.0107,-11.2,70,75,12.66
277,Okhotsk,RU,2021-04-01 14:32:10,59.3833,143.3,9.88,84,86,8.28
278,Turukhansk,RU,2021-04-01 14:33:11,65.8167,87.9833,2.79,82,9,11.81
279,Okato,NZ,2021-04-01 14:33:11,-39.2,173.8833,50.0,78,5,8.01
280,Sabang,ID,2021-04-01 14:33:12,5.8933,95.3214,82.9,74,100,18.92
281,Leeton,AU,2021-04-01 14:33:13,-34.5667,146.4,59.0,82,100,3.42
282,Tommot,RU,2021-04-01 14:33:13,58.9564,126.2925,15.19,94,100,3.04
283,Iqaluit,CA,2021-04-01 14:33:14,63.7506,-68.5145,-20.0,69,40,25.32
284,Dalvik,IS,2021-04-01 14:33:11,65.9702,-18.5286,48.2,46,40,5.75
285,Shimoda,JP,2021-04-01 14:33:14,34.6667,138.95,61.0,67,69,1.01
286,Chesma,RU,2021-04-01 14:33:15,53.8111,60.6533,34.16,77,100,23.04
287,Sirmaur,IN,2021-04-01 14:33:15,24.85,81.3833,83.39,4,0,4.07
288,Cairns,AU,2021-04-01 14:33:07,-16.9167,145.7667,75.2,78,75,11.5
289,Melnikovo,RU,2021-04-01 14:33:16,56.5558,84.085,30.99,52,99,7.0
290,Grand Forks,US,2021-04-01 14:33:17,47.9417,-97.4337,30.99,50,20,13.8
291,Chaklasi,IN,2021-04-01 14:33:17,22.65,72.9333,96.8,21,0,4.61
292,Sobolevo,RU,2021-04-01 14:33:18,54.4299,31.8996,51.89,69,100,7.02
293,Dingle,PH,2021-04-01 14:33:19,10.9995,122.6711,76.48,82,99,9.35
294,Magalia,US,2021-04-01 14:33:19,39.8121,-121.5783,59.0,71,20,5.91
295,Cururupu,BR,2021-04-01 14:33:20,-1.8283,-44.8683,83.66,71,100,5.53
296,Acapulco,MX,2021-04-01 14:33:20,16.8634,-99.8901,82.4,51,40,5.75
297,Sorland,NO,2021-04-01 14:33:16,67.667,12.6934,39.2,81,90,13.8
298,Sitka,US,2021-04-01 14:33:21,57.0531,-135.33,32.0,93,90,8.05
299,Areka,ET,2021-04-01 14:33:22,7.0667,37.7,82.9,25,65,7.09
300,Nador,MA,2021-04-01 14:33:22,35.174,-2.9287,66.2,68,75,12.66
301,Hualmay,PE,2021-04-01 14:33:22,-11.0964,-77.6139,73.17,75,64,7.94
302,Leningradskiy,RU,2021-04-01 14:33:23,69.3833,178.4167,-4.4,95,100,3.62
303,Burnie,AU,2021-04-01 14:32:29,-41.0667,145.9167,59.34,83,99,6.22
304,Kavieng,PG,2021-04-01 14:33:24,-2.5744,150.7967,82.04,79,84,9.46
305,Narsaq,GL,2021-04-01 14:33:24,60.9167,-46.05,35.6,80,75,3.44
306,Cacimba De Dentro,BR,2021-04-01 14:33:25,-6.6417,-35.79,82.83,55,90,10.2
307,Rusape,ZW,2021-04-01 14:33:26,-18.5278,32.1284,70.63,45,32,5.95
308,Tuatapere,NZ,2021-04-01 14:33:27,-46.1333,167.6833,56.23,81,100,10.22
309,Belmonte,BR,2021-04-01 14:33:27,-15.8631,-38.8828,89.6,51,40,12.66
310,Banda Aceh,ID,2021-04-01 14:33:28,5.5577,95.3222,79.95,75,100,12.15
311,Norman Wells,CA,2021-04-01 14:33:28,65.282,-126.8329,5.0,85,90,10.36
312,Krk,HR,2021-04-01 14:33:29,45.0258,14.5731,71.6,37,0,4.61
313,Senanga,ZM,2021-04-01 14:33:29,-16.1167,23.2667,80.15,50,92,3.94
314,Igrim,RU,2021-04-01 14:33:30,63.1906,64.4162,29.21,93,98,4.79
315,Port Augusta,AU,2021-04-01 14:33:30,-32.5,137.7667,68.0,51,0,4.63
316,Talcahuano,CL,2021-04-01 14:33:31,-36.7167,-73.1167,59.36,77,13,5.7
317,Gbadolite,CD,2021-04-01 14:33:31,4.2833,21.0167,93.56,35,42,0.81
318,Duldurga,RU,2021-04-01 14:33:31,50.6761,113.5931,25.25,80,100,7.25
319,Warrington,GB,2021-04-01 14:33:32,53.3925,-2.5802,55.0,71,90,11.5
320,Mangrol,IN,2021-04-01 14:33:32,21.1167,70.1167,79.86,73,0,13.35
321,Talaja,IN,2021-04-01 14:33:33,21.35,72.05,81.25,63,2,12.01
322,Toora-Khem,RU,2021-04-01 14:33:33,52.4675,96.11,18.39,93,50,1.79
323,Yokadouma,CM,2021-04-01 14:33:34,3.5167,15.05,91.36,34,73,1.63
324,Codrington,AU,2021-04-01 14:32:13,-38.2667,141.9667,60.55,62,84,5.01
325,Caluquembe,AO,2021-04-01 14:33:35,-13.7833,14.6833,71.28,60,71,4.07
326,Ngunguru,NZ,2021-04-01 14:33:35,-35.6167,174.5,61.0,95,19,5.01
327,Riberalta,BO,2021-04-01 14:33:36,-10.9833,-66.1,78.8,83,75,3.13
328,Shingu,JP,2021-04-01 14:33:36,33.7333,135.9833,59.85,89,100,7.92
329,Morgantown,US,2021-04-01 14:33:37,39.6295,-79.9559,35.01,60,75,9.22
330,Omsukchan,RU,2021-04-01 14:33:37,62.5333,155.8,-0.49,98,100,6.46
331,Patea,NZ,2021-04-01 14:33:38,-39.7583,174.4833,45.0,95,10,2.57
332,Hobyo,SO,2021-04-01 14:33:38,5.3505,48.5268,82.78,66,78,13.73
333,Waipawa,NZ,2021-04-01 14:33:38,-41.4122,175.5153,46.4,93,11,8.05
334,Kanganpur,PK,2021-04-01 14:33:39,30.7663,74.1231,71.62,7,0,9.08
335,Yarensk,RU,2021-04-01 14:33:39,62.1675,49.0916,34.34,89,99,7.43
336,Ewa Beach,US,2021-04-01 14:33:40,21.3156,-158.0072,73.4,83,20,4.61
337,Havre-Saint-Pierre,CA,2021-04-01 14:33:40,50.2334,-63.5986,37.4,93,90,19.57
338,Presidencia Roque Saenz Pena,AR,2021-04-01 14:33:41,-26.7852,-60.4388,79.0,49,0,1.99
339,Vostok,RU,2021-04-01 14:33:41,46.4856,135.8833,25.21,89,10,5.77
340,Staropyshminsk,RU,2021-04-01 14:33:42,56.9387,60.903,37.4,81,90,15.66
341,Mao,ES,2021-04-01 14:33:42,39.8885,4.2658,66.2,48,0,16.11
342,Biabou,VC,2021-04-01 14:33:43,13.2,-61.1333,82.4,74,20,14.97
343,Caceres,ES,2021-04-01 14:33:43,39.522,-6.3748,66.0,62,94,10.0
344,Yatou,CN,2021-04-01 14:33:44,37.15,122.3833,52.3,57,99,1.32
345,Tarauaca,BR,2021-04-01 14:33:44,-8.1614,-70.7656,85.62,63,90,2.95
346,Husavik,IS,2021-04-01 14:33:45,66.0449,-17.3389,48.2,46,40,5.75
347,Labrea,BR,2021-04-01 14:33:46,-7.2586,-64.7981,83.19,73,63,2.59
348,Vestmannaeyjar,IS,2021-04-01 14:33:46,63.4427,-20.2734,42.8,75,90,17.27
349,Rawson,AR,2021-04-01 14:32:44,-43.3002,-65.1023,64.38,62,100,4.47
350,Yulara,AU,2021-04-01 14:33:47,-25.2406,130.9889,71.6,28,0,6.91
351,Parabel,RU,2021-04-01 14:33:13,58.6978,81.4825,28.92,82,100,16.91
352,Pimentel,PE,2021-04-01 14:31:34,-6.8367,-79.9342,75.2,73,0,5.75
353,Namibe,AO,2021-04-01 14:33:48,-15.1961,12.1522,84.2,65,40,11.5
354,Sisimiut,GL,2021-04-01 14:33:48,66.9395,-53.6735,34.0,84,100,42.46
355,Bowen,AU,2021-04-01 14:33:49,-20.0167,148.2333,71.6,78,2,10.36
356,Shache,CN,2021-04-01 14:31:46,38.4167,77.2406,52.18,37,82,7.34
357,Along,IN,2021-04-01 14:33:51,28.1667,94.7667,58.35,94,59,3.67
358,Maniitsoq,GL,2021-04-01 14:33:51,65.4167,-52.9,32.18,97,100,47.27
359,Nioki,CD,2021-04-01 14:33:52,-2.7167,17.6833,88.45,48,70,2.59
360,Micheweni,TZ,2021-04-01 14:33:52,-4.9667,39.8333,83.35,74,97,14.45
361,Whitecourt,CA,2021-04-01 14:33:52,54.1502,-115.6855,30.2,64,90,2.3
362,Urk,NL,2021-04-01 14:33:53,52.6625,5.6014,55.99,64,7,7.0
363,Faya,SA,2021-04-01 14:33:53,18.3851,42.4509,77.0,29,20,17.27
364,San Quintin,MX,2021-04-01 14:33:54,30.4833,-115.95,68.27,33,0,4.85
365,Ternate,ID,2021-04-01 14:33:54,0.8,127.4,81.88,80,97,5.53
366,Daru,PG,2021-04-01 14:33:55,-9.0763,143.2092,77.79,91,100,6.64
367,Kavaratti,IN,2021-04-01 14:33:55,10.5669,72.642,83.88,64,71,13.09
368,Townsville,AU,2021-04-01 14:33:56,-19.25,146.8,75.2,64,40,13.8
369,Ilmatsalu,EE,2021-04-01 14:33:57,58.3881,26.5593,50.0,43,0,10.36
370,Srikakulam,IN,2021-04-01 14:33:57,18.3,83.9,81.03,92,34,10.47
371,Rio Cuarto,AR,2021-04-01 14:30:21,-33.1307,-64.3499,69.01,68,40,19.57
372,Noumea,NC,2021-04-01 14:33:58,-22.2763,166.4572,73.4,83,0,2.3
373,Kasongo-Lunda,CD,2021-04-01 14:33:59,-6.4667,16.8167,79.56,72,97,0.89
374,Makakilo City,US,2021-04-01 14:33:59,21.3469,-158.0858,73.4,83,20,4.61
375,Iranshahr,IR,2021-04-01 14:34:00,27.2025,60.6848,95.0,8,0,9.22
376,Palmer,US,2021-04-01 14:30:24,42.1584,-72.3287,43.0,75,90,12.66
377,Srednekolymsk,RU,2021-04-01 14:34:00,67.45,153.6833,-22.09,100,86,3.87
378,Sikonge,TZ,2021-04-01 14:34:01,-5.6333,32.7667,80.6,57,75,5.41
379,Ilulissat,GL,2021-04-01 14:34:02,69.2167,-51.1,28.4,86,75,8.05
380,Padang,ID,2021-04-01 14:32:57,-0.9492,100.3543,78.8,89,90,1.14
381,Szczytno,PL,2021-04-01 14:34:03,53.5626,20.9875,57.2,47,0,14.97
382,Whittlesea,ZA,2021-04-01 14:34:03,-32.1759,26.8244,68.09,60,55,14.88
383,Port Lincoln,AU,2021-04-01 14:34:04,-34.7333,135.8667,68.07,66,0,5.84
384,Sioux Lookout,CA,2021-04-01 14:34:04,50.1001,-91.917,19.4,63,20,6.91
385,Lagoa,PT,2021-04-01 14:34:06,39.05,-27.9833,58.84,83,100,22.21
386,Artyom,AZ,2021-04-01 14:34:06,40.4723,50.333,53.6,87,40,16.11
387,Caravelas,BR,2021-04-01 14:34:07,-17.7125,-39.2481,79.61,84,68,7.76
388,Sakakah,SA,2021-04-01 14:34:07,29.9697,40.2064,77.0,14,0,11.01
389,Manaus,BR,2021-04-01 14:33:15,-3.1019,-60.025,78.8,83,75,3.44
390,Paso De Carrasco,UY,2021-04-01 14:34:08,-34.8603,-56.0522,75.0,64,40,5.75
391,Bambous Virieux,MU,2021-04-01 14:34:09,-20.3428,57.7575,82.4,78,40,6.91
392,Buraydah,SA,2021-04-01 14:33:41,26.326,43.975,95.0,28,75,9.22
393,Abha,SA,2021-04-01 14:34:09,18.2164,42.5053,77.0,29,20,17.27
394,Santa Rosa,PH,2021-04-01 14:34:10,14.3122,121.1114,82.4,74,20,10.36
395,Monrovia,LR,2021-04-01 14:34:10,6.3005,-10.7969,89.6,66,75,6.91
396,Hondo,JP,2021-04-01 14:34:11,32.45,130.2,64.0,67,100,2.33
397,Ahipara,NZ,2021-04-01 14:34:11,-35.1667,173.1667,62.6,85,9,11.79
398,Pangai,TO,2021-04-01 14:34:12,-19.8,-174.35,81.68,78,46,17.63
399,Santo Antonio Do Sudoeste,BR,2021-04-01 14:34:12,-26.0736,-53.7253,75.43,38,0,2.19
400,Chapais,CA,2021-04-01 14:34:13,49.7834,-74.8492,8.6,72,90,12.66
401,Gat,IL,2021-04-01 14:34:13,31.61,34.7642,66.0,49,62,1.01
402,Xinmin,CN,2021-04-01 14:34:14,41.9908,122.8253,57.2,35,100,4.47
403,Korla,CN,2021-04-01 14:34:14,41.7597,86.1469,50.65,43,100,5.12
404,Polunochnoye,RU,2021-04-01 14:34:15,60.8697,60.4153,27.97,92,47,4.29
405,Tigil,RU,2021-04-01 14:34:15,57.8,158.6667,30.9,97,100,9.51
406,Pontal Do Parana,BR,2021-04-01 14:34:16,-25.6533,-48.5128,68.0,68,75,5.75
407,Ville-Marie,CA,2021-04-01 14:34:16,47.3335,-79.433,14.0,62,1,19.57
408,Hithadhoo,MV,2021-04-01 14:34:16,-0.6,73.0833,84.04,77,100,16.11
409,Richards Bay,ZA,2021-04-01 14:34:17,-28.783,32.0377,77.13,76,59,6.76
410,Sakhipur,BD,2021-04-01 14:34:17,24.3,90.1833,89.6,51,0,16.11
411,Honiara,SB,2021-04-01 14:34:18,-9.4333,159.95,78.19,87,89,2.57
412,Acarau,BR,2021-04-01 14:34:18,-2.8856,-40.12,84.69,70,92,14.09
413,Gushikawa,JP,2021-04-01 14:34:19,26.3544,127.8686,75.2,88,75,8.05
414,Yellowknife,CA,2021-04-01 14:30:18,62.456,-114.3525,8.6,85,90,16.11
415,Dickinson,US,2021-04-01 14:30:47,29.4608,-95.0513,59.0,35,1,12.66
416,Hurghada,EG,2021-04-01 14:33:17,27.2574,33.8129,78.8,21,0,8.05
417,Mount Gambier,AU,2021-04-01 14:34:20,-37.8333,140.7667,57.2,77,45,4.61
418,Sao Jose Do Campestre,BR,2021-04-01 14:34:21,-6.3156,-35.7139,87.8,58,75,16.11
419,Senneterre,CA,2021-04-01 14:34:21,48.3835,-77.2328,10.4,72,90,13.8
420,Orlovskiy,RU,2021-04-01 14:34:22,46.8714,42.0592,54.0,56,10,9.91
421,Cabo San Lucas,MX,2021-04-01 14:29:27,22.8909,-109.9124,71.6,26,40,8.05
422,Sao Geraldo Do Araguaia,BR,2021-04-01 14:34:23,-6.4006,-48.555,83.82,74,100,3.49
423,Tsogni,GA,2021-04-01 14:34:24,-2.7942,10.0988,82.58,70,22,11.12
424,Komsomolets,KZ,2021-04-01 14:34:24,53.7453,62.0708,34.07,85,100,23.09
425,Leh,IN,2021-04-01 14:34:25,34.1667,77.5833,31.59,29,67,5.55
426,Tiarei,PF,2021-04-01 14:34:25,-17.5333,-149.3333,78.8,73,75,4.61
427,Port Hedland,AU,2021-04-01 14:34:26,-20.3167,118.5667,82.4,69,0,6.91
428,Pallasovka,RU,2021-04-01 14:34:27,50.05,46.8833,49.95,47,0,7.43
429,Constitucion,CL,2021-04-01 14:34:27,-35.3333,-72.4167,64.6,65,4,4.16
430,Bessonovka,RU,2021-04-01 14:34:28,53.3097,45.0407,37.87,97,100,11.5
431,Glyadyanskoye,RU,2021-04-01 14:34:28,54.9075,65.0883,33.39,97,100,21.54
432,Portland,US,2021-04-01 14:26:37,45.5234,-122.6762,45.0,81,100,1.01
433,Camocim,BR,2021-04-01 14:32:15,-2.9022,-40.8411,83.95,73,79,11.79
434,Campbell River,CA,2021-04-01 14:30:12,50.0163,-125.2446,39.99,100,90,3.44
435,Hami,CN,2021-04-01 14:31:12,42.8,93.45,51.57,26,0,3.58
436,Ucluelet,CA,2021-04-01 14:32:06,48.9329,-125.5528,42.01,87,90,4.56
437,Aripuana,BR,2021-04-01 14:34:31,-9.1667,-60.6333,82.67,71,92,0.83
438,Zabkowice Slaskie,PL,2021-04-01 14:34:31,50.5897,16.8124,62.01,50,100,11.9
439,Pulandian,CN,2021-04-01 14:34:32,39.3953,121.9669,50.0,57,0,8.95
440,Birjand,IR,2021-04-01 14:34:32,32.8663,59.2211,75.2,8,0,18.41
441,Linhares,BR,2021-04-01 14:34:32,-19.3911,-40.0722,86.61,58,53,2.91
442,Sherkot,IN,2021-04-01 14:34:33,29.35,78.5833,74.16,5,0,6.49
443,Kodinsk,RU,2021-04-01 14:32:08,58.6881,99.1844,1.54,99,72,3.51
444,Thunder Bay,CA,2021-04-01 14:29:38,48.4001,-89.3168,23.0,68,1,5.75
445,Asau,RO,2021-04-01 14:34:34,46.4333,26.4,63.0,39,0,14.97
446,Homer,US,2021-04-01 14:34:11,59.6425,-151.5483,26.6,59,90,4.61
447,Oktyabrskiy,RU,2021-04-01 14:34:35,54.4815,53.471,35.65,95,100,19.1
448,Altamont,US,2021-04-01 14:34:35,42.2068,-121.7372,39.0,74,1,4.61
449,Grand-Santi,GF,2021-04-01 14:34:36,4.25,-54.3833,87.4,55,88,3.87
450,Kukshi,IN,2021-04-01 14:34:37,22.2,74.75,90.99,6,0,7.63
451,Coahuayana,MX,2021-04-01 14:34:37,18.7333,-103.6833,77.0,50,40,11.5
452,Klyuchi,RU,2021-04-01 14:34:38,52.2667,79.1667,17.08,95,7,4.59
453,Bandarbeyla,SO,2021-04-01 14:34:38,9.4942,50.8122,80.2,61,4,9.04
454,Deer Lake,CA,2021-04-01 14:34:38,49.1667,-57.4316,46.4,57,20,6.91
455,Nyurba,RU,2021-04-01 14:34:39,63.2842,118.3319,-3.62,89,25,8.05
456,Baykit,RU,2021-04-01 14:34:39,61.67,96.37,-2.4,99,59,2.1
457,Krasnoshchekovo,RU,2021-04-01 14:34:40,51.6708,82.7289,13.77,97,11,2.73
458,Rocha,UY,2021-04-01 14:30:14,-34.4833,-54.3333,68.65,63,99,7.45
459,Kendari,ID,2021-04-01 14:34:41,-3.945,122.4989,77.2,90,95,2.04
460,Bemidji,US,2021-04-01 14:34:41,47.4736,-94.8803,28.99,50,1,10.36
461,Dawei,MM,2021-04-01 14:34:41,14.0833,98.2,78.24,88,100,1.48
462,Inirida,CO,2021-04-01 14:33:40,3.8653,-67.9239,85.01,72,77,1.32
463,Qarqin,AF,2021-04-01 14:34:42,37.4185,66.0436,58.14,32,1,12.26
464,Brindisi,IT,2021-04-01 14:34:43,40.5833,17.6667,71.6,77,0,9.22
465,Blagoyevo,RU,2021-04-01 14:34:43,63.3667,47.9167,33.24,97,100,6.96
466,Lorengau,PG,2021-04-01 14:34:44,-2.0226,147.2712,82.51,76,100,4.68
467,Vardo,NO,2021-04-01 14:34:44,70.3705,31.1107,33.8,86,75,9.22
468,Magburaka,SL,2021-04-01 14:34:45,8.7167,-11.95,104.23,21,94,4.9
469,Alice Springs,AU,2021-04-01 14:34:34,-23.7,133.8833,66.2,48,0,5.75
470,Fare,PF,2021-04-01 14:34:45,-16.7,-151.0167,80.35,75,92,4.27
471,Debre Tabor,ET,2021-04-01 14:34:46,11.85,38.0167,67.59,35,100,6.85
472,Bend,US,2021-04-01 14:34:46,44.0582,-121.3153,51.01,51,1,6.91
473,Bolitoc,PH,2021-04-01 14:34:47,15.7395,119.8769,80.35,70,46,4.47
474,Cockburn Town,TC,2021-04-01 14:34:47,21.4612,-71.1419,77.34,68,4,18.39
475,Hovd,MN,2021-04-01 14:34:48,48.0056,91.6419,31.06,51,100,4.07
476,Xiantao,CN,2021-04-01 14:34:48,30.3833,113.4,53.04,91,100,8.75
477,Carlsbad,US,2021-04-01 14:32:59,33.1581,-117.3506,63.0,35,1,6.11
478,Apatou,GF,2021-04-01 14:34:50,5.155,-54.3472,85.96,60,90,5.73
479,Bethanien,NA,2021-04-01 14:34:50,-26.502,17.1583,87.94,24,96,13.67
480,Mitu,CO,2021-04-01 14:34:51,1.1983,-70.1733,82.35,73,76,2.13
481,Bedele,ET,2021-04-01 14:34:51,8.456,36.353,72.7,42,75,8.9
482,Venice,US,2021-04-01 14:34:52,27.0998,-82.4543,78.01,83,75,6.91
483,Ayan,RU,2021-04-01 14:34:52,56.45,138.1667,17.04,85,43,7.25
484,Cayenne,GF,2021-04-01 14:34:52,4.9333,-52.3333,84.2,65,75,16.11
485,Valleyview,CA,2021-04-01 14:34:53,55.0667,-117.2859,33.24,82,100,4.81
486,Saint-Augustin,CA,2021-04-01 14:31:19,51.226,-58.6502,33.15,99,100,6.67
487,Makat,KZ,2021-04-01 14:34:54,47.6469,53.3463,48.99,31,0,10.58
488,Kinango,KE,2021-04-01 14:34:54,-4.1372,39.3153,87.8,55,40,23.02
489,Huancavelica,PE,2021-04-01 14:34:55,-12.7667,-74.9833,39.33,87,91,1.43
490,Quesnel,CA,2021-04-01 14:34:55,52.9999,-122.5029,33.8,64,1,6.22
491,Tocopilla,CL,2021-04-01 14:30:10,-22.092,-70.1979,71.74,65,7,9.42
492,Raudeberg,NO,2021-04-01 14:34:56,61.9875,5.1352,42.01,76,99,11.83
493,Jibuti,DJ,2021-04-01 14:34:57,11.5,42.5,89.6,33,1,6.91
494,Maarianhamina,AX,2021-04-01 14:34:57,60.0973,19.9348,42.8,56,0,11.5
495,Pinan,SE,2021-04-01 14:34:57,58.68,11.6463,51.01,78,4,7.47
496,Uaua,BR,2021-04-01 14:34:58,-9.8414,-39.4817,93.25,34,95,5.66
497,Moose Factory,CA,2021-04-01 14:32:24,51.2585,-80.6094,8.6,66,1,2.3
498,Badajoz,ES,2021-04-01 14:34:59,38.6667,-6.1667,69.01,57,63,15.01
499,Kajaani,FI,2021-04-01 14:34:59,64.2273,27.7285,37.4,60,75,13.8
500,Koran,BA,2021-04-01 14:35:00,43.8103,18.5689,73.4,25,20,3.44
501,Vila Franca Do Campo,PT,2021-04-01 14:31:51,37.7167,-25.4333,62.6,77,20,9.22
502,Roma,US,2021-04-01 14:33:34,43.2128,-75.4557,37.0,80,75,13.8
503,Magistralnyy,RU,2021-04-01 14:35:01,56.1725,107.4458,10.36,95,93,2.57
504,Yarim,YE,2021-04-01 14:32:15,14.298,44.3779,64.85,32,17,0.31
505,Saint-Francois,FR,2021-04-01 14:35:02,46.4154,3.9054,75.2,35,7,5.75
506,Baiyin,CN,2021-04-01 14:35:02,36.5583,104.2081,42.01,93,90,8.95
507,Chimbote,PE,2021-04-01 14:32:14,-9.0853,-78.5783,71.24,81,100,7.18
508,Ecoporanga,BR,2021-04-01 14:35:03,-18.3733,-40.8306,88.02,55,7,1.25
509,Launceston,AU,2021-04-01 14:33:44,-41.45,147.1667,59.0,82,98,6.91
510,Meadow Lake,US,2021-04-01 14:35:03,34.8014,-106.5436,44.01,38,20,3.44
511,Ostrovnoy,RU,2021-04-01 14:35:05,68.0531,39.5131,29.32,96,100,12.17
512,Gretna,US,2021-04-01 14:34:12,29.9147,-90.054,55.99,35,1,13.8
513,San Francisco,US,2021-04-01 14:30:18,37.7749,-122.4194,57.0,54,1,5.5
514,Guadalajara,MX,2021-04-01 14:34:18,20.6667,-103.3333,66.2,42,1,11.5
515,Kenora,CA,2021-04-01 14:35:06,49.8167,-94.4337,21.2,58,20,13.8
516,Amuntai,ID,2021-04-01 14:35:07,-2.4177,115.2494,74.68,97,91,2.55
517,Astana,KZ,2021-04-01 14:35:08,51.1801,71.446,19.4,86,0,8.95
518,Ariquemes,BR,2021-04-01 14:31:59,-9.9133,-63.0408,86.04,63,96,1.45
519,Olinda,BR,2021-04-01 14:32:07,-8.0089,-34.8553,84.2,61,40,9.22
520,Ninotsminda,GE,2021-04-01 14:35:09,41.2646,43.5916,53.6,40,40,5.75
521,Harper,LR,2021-04-01 14:35:09,4.375,-7.7169,83.93,70,40,6.93
522,Murom,RU,2021-04-01 14:35:10,55.5656,42.0417,37.02,99,100,10.54
523,Kaduqli,SD,2021-04-01 14:35:10,11.0167,29.7167,96.13,10,61,6.76
524,Axim,GH,2021-04-01 14:35:11,4.8699,-2.2405,85.01,68,25,11.72
525,Morar,IN,2021-04-01 14:35:12,26.2261,78.2261,84.2,15,1,2.3
526,Athens,GR,2021-04-01 14:34:45,37.9795,23.7162,57.2,51,40,17.27
527,Iskateley,RU,2021-04-01 14:35:12,67.6803,53.1512,27.14,97,99,3.6
528,Phonhong,LA,2021-04-01 14:35:13,18.5007,102.4166,87.8,55,75,2.3
529,Itamaraju,BR,2021-04-01 14:32:01,-17.0392,-39.5311,97.56,36,1,1.86
530,Loralai,PK,2021-04-01 14:35:14,30.3705,68.598,68.2,12,0,23.49
531,Hamilton,US,2021-04-01 14:35:14,39.1834,-84.5333,36.0,55,40,10.36
532,Sendafa,ET,2021-04-01 14:35:15,9.15,39.0333,68.68,20,6,14.43
533,San Jeronimo,PE,2021-04-01 14:35:15,-11.9472,-75.2829,56.12,66,87,2.59
534,Sladkovo,RU,2021-04-01 14:35:16,55.5284,70.3385,29.37,88,100,20.09
535,Sola,VU,2021-04-01 14:35:16,-13.8833,167.55,81.86,76,100,5.88
536,Coihaique,CL,2021-04-01 14:32:32,-45.5752,-72.0662,48.2,93,90,4.61
537,Yerbogachen,RU,2021-04-01 14:35:17,61.2767,108.0108,-5.62,100,94,1.61
538,Sanchez,DO,2021-04-01 14:35:18,19.2281,-69.6137,80.6,73,40,8.46
539,Fuling,CN,2021-04-01 14:35:18,29.7022,107.3919,62.2,92,100,1.7
540,Kita,ML,2021-04-01 14:35:19,13.0349,-9.4895,106.11,5,0,5.97
541,San Gavino Monreale,IT,2021-04-01 14:35:19,39.5514,8.7917,75.2,56,0,11.5
542,Shenkursk,RU,2021-04-01 14:35:20,62.1091,42.896,34.12,91,100,8.12
543,Aksarka,RU,2021-04-01 14:35:20,66.5606,67.7975,20.79,98,96,4.05
544,Dabakala,CI,2021-04-01 14:35:21,8.3667,-4.4333,101.88,19,53,5.21
545,Nouadhibou,MR,2021-04-01 14:35:21,20.931,-17.0347,77.0,57,83,13.8
546,Malinovoye Ozero,RU,2021-04-01 14:35:22,51.6753,79.7825,22.15,93,10,3.06
547,Bakchar,RU,2021-04-01 14:35:23,57.0186,82.0711,24.04,84,100,12.26
548,Mayor Pablo Lagerenza,PY,2021-04-01 14:33:22,-19.9309,-60.7718,81.9,38,100,5.08
549,Zmeinogorsk,RU,2021-04-01 14:35:23,51.1567,82.195,13.01,97,34,2.06
550,Illapel,CL,2021-04-01 14:35:24,-31.6308,-71.1653,71.53,53,0,5.08
551,Antalaha,MG,2021-04-01 14:35:24,-14.9003,50.2788,78.04,88,88,8.39
552,Aswan,EG,2021-04-01 14:32:07,24.0934,32.907,81.25,13,0,10.36
553,Sechenovo,RU,2021-04-01 14:35:25,55.2244,45.8906,35.71,99,100,13.13
554,Sumbe,AO,2021-04-01 14:35:26,-11.2061,13.8437,86.0,67,20,10.36
555,Xining,CN,2021-04-01 14:35:26,36.6167,101.7667,33.42,86,100,6.91
556,Fort Wellington,GY,2021-04-01 14:35:26,6.4,-57.6,82.15,67,88,10.25
557,Zaysan,KZ,2021-04-01 14:35:27,47.4667,84.8667,27.86,82,33,5.14
558,Linxia,CN,2021-04-01 14:31:18,35.6003,103.2064,37.02,98,100,3.53
559,Srandakan,ID,2021-04-01 14:35:28,-7.9386,110.2506,77.59,86,100,9.13
560,Wajima,JP,2021-04-01 14:35:28,37.4,136.9,49.68,68,87,16.33
561,Socorro,US,2021-04-01 14:32:58,31.6546,-106.3033,57.0,29,20,11.5
562,Conceicao Do Araguaia,BR,2021-04-01 14:35:29,-8.2578,-49.2647,84.2,74,20,4.61
563,Seymchan,RU,2021-04-01 14:35:30,62.8833,152.4333,-7.26,99,66,5.66
564,San Patricio,US,2021-04-01 14:35:31,28.017,-97.5169,62.6,31,90,11.5
565,Danilovka,RU,2021-04-01 14:35:31,50.3557,44.1168,50.54,50,3,7.76
566,Laguna De Perlas,NI,2021-04-01 14:35:32,12.3429,-83.6712,82.4,83,75,4.61
567,Marienburg,PL,2021-04-01 14:35:32,54.0359,19.0266,43.0,88,99,8.01
568,Mangaldai,IN,2021-04-01 14:35:33,26.4333,92.0333,71.6,78,40,1.14
569,Tanout,NE,2021-04-01 14:35:34,14.9709,8.8879,92.41,5,2,13.69
570,Praia Da Vitoria,PT,2021-04-01 14:35:34,38.7333,-27.0667,66.2,63,40,12.68
571,Seoul,KR,2021-04-01 14:35:16,37.5683,126.9778,62.6,36,0,11.5
572,Varnamo,SE,2021-04-01 14:35:35,57.186,14.04,52.0,48,38,1.01
573,Abnub,EG,2021-04-01 14:35:35,27.2696,31.1511,77.0,25,0,19.57
574,Bartlesville,US,2021-04-01 14:35:10,36.7473,-95.9808,45.0,62,0,1.01
575,Kibala,TD,2021-04-01 14:35:36,9.1104,18.3463,104.0,9,0,4.61
576,Hanna,CA,2021-04-01 14:35:37,51.6334,-111.9018,30.99,71,80,5.99
577,Atar,MR,2021-04-01 14:35:37,20.5169,-13.0499,103.05,5,100,6.31
578,Porto Santo,PT,2021-04-01 14:33:31,33.072,-16.3415,66.2,77,20,16.11
579,Katherine,AU,2021-04-01 14:35:38,-14.4667,132.2667,84.2,45,90,13.8
580,Peace River,CA,2021-04-01 14:35:38,56.2501,-117.286,34.0,80,75,4.61
581,Hofn,IS,2021-04-01 14:31:32,64.2539,-15.2082,51.8,43,0,20.71
582,Kichera,RU,2021-04-01 14:35:12,55.9375,110.0997,9.32,85,44,3.15
583,Kyren,RU,2021-04-01 14:35:40,51.6828,102.1408,23.72,91,66,2.28
584,Marsa Matruh,EG,2021-04-01 14:35:40,31.3525,27.2453,62.6,48,40,25.32
585,Chubbuck,US,2021-04-01 14:30:48,42.9208,-112.4661,35.01,80,1,4.79
586,Kosh-Agach,RU,2021-04-01 14:35:41,50.0,88.6667,11.73,73,15,4.27
587,Mocuba,MZ,2021-04-01 14:35:42,-16.8392,36.9856,75.2,77,13,4.83
588,Lithgow,AU,2021-04-01 14:35:42,-33.4833,150.15,63.0,91,71,0.36
589,Mundra,IN,2021-04-01 14:35:43,22.85,69.7333,83.16,45,1,10.58
590,Kokkola,FI,2021-04-01 14:35:43,63.8385,23.1307,41.0,60,0,6.91
591,Lobatse,BW,2021-04-01 14:35:44,-25.2167,25.6667,78.8,38,40,4.61
592,Matara,LK,2021-04-01 14:31:20,5.9485,80.5353,80.83,84,63,10.07
593,Ibaiti,BR,2021-04-01 14:35:44,-23.8486,-50.1878,75.99,51,68,1.99
594,Mikhaylovka,RU,2021-04-01 14:35:45,50.06,43.2379,57.0,48,1,8.01
595,Boca Do Acre,BR,2021-04-01 14:35:45,-8.7522,-67.3978,87.33,58,100,1.54
596,Nazareno,MX,2021-04-01 14:35:46,25.3833,-103.4167,64.4,55,90,9.86
597,Oranjemund,NA,2021-04-01 14:35:46,-28.55,16.4333,65.66,73,0,19.33
598,Egersund,NO,2021-04-01 14:35:47,58.4513,5.9997,46.4,61,40,21.85
599,Sao Joao Da Barra,BR,2021-04-01 14:35:47,-21.6403,-41.0511,84.2,58,20,6.91
600,Fergus Falls,US,2021-04-01 14:35:48,46.283,-96.0776,30.0,59,1,14.97
601,San Andres,CO,2021-04-01 14:34:15,12.5847,-81.7006,84.2,70,40,16.11
602,Maceio,BR,2021-04-01 14:35:49,-9.6658,-35.7353,87.8,62,75,11.5
603,Japura,ID,2021-04-01 14:35:49,-0.3167,102.35,75.96,79,99,2.08
604,Kulhudhuffushi,MV,2021-04-01 14:35:50,6.6221,73.07,84.15,77,85,12.97
605,Capreol,CA,2021-04-01 14:31:22,46.706,-80.9225,19.99,53,20,19.57
606,Rio Gallegos,AR,2021-04-01 14:32:22,-51.6226,-69.2181,51.8,66,75,20.71
607,De-Kastri,RU,2021-04-01 14:35:51,51.4667,140.7833,30.92,90,100,3.06
608,Kunyang,CN,2021-04-01 14:35:51,27.6658,120.5658,63.97,97,98,1.99
609,Bonavista,CA,2021-04-01 14:35:52,48.6499,-53.1147,42.8,61,61,5.75
610,Quatre Cocos,MU,2021-04-01 14:31:59,-20.2078,57.7625,82.4,78,40,6.91
611,Windsor,CA,2021-04-01 14:33:14,42.3001,-83.0165,30.0,54,90,16.11
612,Jacareacanga,BR,2021-04-01 14:35:53,-6.2222,-57.7528,80.6,89,75,4.61
613,Miles City,US,2021-04-01 14:35:54,46.4083,-105.8406,32.0,51,1,10.36
614,Ligayan,PH,2021-04-01 14:35:54,4.6533,119.4706,82.15,81,100,20.09
615,Ahome,MX,2021-04-01 14:35:55,25.9167,-109.1833,66.99,77,75,7.23
616,Vigia Del Fuerte,CO,2021-04-01 14:35:55,6.5789,-76.8863,80.04,86,100,3.31
617,Alekseyevka,RU,2021-04-01 14:35:56,50.6309,38.6903,54.61,53,36,9.15
618,Merauke,ID,2021-04-01 14:35:57,-8.4667,140.3333,78.13,89,100,7.11
619,Willowmore,ZA,2021-04-01 14:35:58,-33.2926,23.4895,71.56,43,33,7.27
620,Ponta Delgada,PT,2021-04-01 14:35:59,37.7333,-25.6667,62.6,77,20,9.22
621,Chara,RU,2021-04-01 14:32:10,56.9064,118.2631,10.76,80,34,5.12
622,Itoman,JP,2021-04-01 14:36:00,26.1247,127.6694,75.2,88,75,10.36
623,Tarko-Sale,RU,2021-04-01 14:36:01,64.9225,77.785,24.46,95,100,19.93
624,Edmundston,CA,2021-04-01 14:32:44,47.3737,-68.3251,33.8,93,100,5.75
625,Itaituba,BR,2021-04-01 14:36:02,-4.2761,-55.9836,73.4,100,90,1.48
626,Taksimo,RU,2021-04-01 14:36:02,56.3444,114.8794,14.68,88,88,4.29
627,Rio Grande,BR,2021-04-01 14:36:03,-32.035,-52.0986,69.8,83,75,9.22
628,Souillac,MU,2021-04-01 14:36:03,-20.5167,57.5167,82.4,78,40,6.91
629,Burns Lake,CA,2021-04-01 14:36:05,54.2331,-125.7533,30.2,80,98,4.61
630,Fairbanks,US,2021-04-01 14:35:15,64.8378,-147.7164,3.99,78,90,11.5
631,Marfino,RU,2021-04-01 14:36:06,55.7028,37.3822,46.0,100,90,6.71
632,Kutum,SD,2021-04-01 14:36:06,14.2,24.6667,88.81,9,2,3.18
633,Murgud,IN,2021-04-01 14:36:07,16.4,74.2,76.82,59,7,9.33
634,Sindor,RU,2021-04-01 14:36:08,62.8629,51.8905,32.43,98,100,7.49
635,Rundu,NA,2021-04-01 14:36:08,-17.9333,19.7667,78.03,54,100,1.88
636,Opunake,NZ,2021-04-01 14:36:09,-39.4556,173.8583,48.99,95,22,5.37
637,Krasnoselkup,RU,2021-04-01 14:36:09,65.7,82.4667,9.91,87,100,19.53
638,Bulancak,TR,2021-04-01 14:36:10,40.9372,38.2291,46.4,100,75,2.3
639,Biak,ID,2021-04-01 14:36:10,-0.9131,122.8766,78.28,82,100,2.68
640,Fort Saint James,CA,2021-04-01 14:36:11,54.4333,-124.25,33.6,73,97,9.22
641,Monywa,MM,2021-04-01 14:36:11,22.1167,95.1333,93.31,23,67,7.78
642,Kuldur,RU,2021-04-01 14:36:12,49.2167,131.6333,31.87,90,98,2.46
643,Urumqi,CN,2021-04-01 14:36:12,43.801,87.6005,46.4,46,75,6.71
644,Torrington,US,2021-04-01 14:36:13,41.8007,-73.1212,41.0,91,100,4.0
645,Puerto Princesa,PH,2021-04-01 14:36:13,9.7392,118.7353,78.67,85,100,4.72
646,Ballachulish,GB,2021-04-01 14:36:14,56.6774,-5.1308,51.8,58,0,5.75
647,Santa Cruz De Tenerife,ES,2021-04-01 14:34:10,28.4682,-16.2546,70.0,77,75,9.22
648,Novaya Ladoga,RU,2021-04-01 14:36:15,60.1025,32.3019,37.83,76,14,7.52
649,Juchipila,MX,2021-04-01 14:36:15,21.4167,-103.1167,71.56,52,25,11.41
650,Flinders,AU,2021-04-01 14:36:15,-34.5833,150.8552,64.0,86,82,4.88
651,Ugoofaaru,MV,2021-04-01 14:36:16,5.6667,73.0,84.58,72,100,13.13
652,Chiredzi,ZW,2021-04-01 14:31:18,-21.05,31.6667,83.82,29,26,7.65
653,Tulum,MX,2021-04-01 14:36:17,20.2167,-87.4667,80.6,83,20,6.91
654,Banjar,ID,2021-04-01 14:36:17,-8.19,114.9675,82.4,83,20,2.3
655,Saint-Pierre,RE,2021-04-01 14:36:18,-21.3393,55.4781,80.6,69,75,21.85
656,Pochutla,MX,2021-04-01 14:36:18,15.7432,-96.4661,82.99,65,1,4.0
657,Sayyan,YE,2021-04-01 14:36:20,15.1718,44.3244,69.35,12,65,13.22
658,Colomi,BO,2021-04-01 14:36:20,-17.35,-65.8667,62.6,72,75,4.97
659,Hervey Bay,AU,2021-04-01 14:36:21,-25.2986,152.8535,66.0,93,16,3.0
660,Kalmar,SE,2021-04-01 14:36:21,56.6616,16.3616,46.4,57,0,13.8
661,Glencoe,ZA,2021-04-01 14:36:22,-28.1783,30.147,74.82,39,79,5.68
662,Evensk,RU,2021-04-01 14:36:22,61.95,159.2333,20.95,77,100,16.98
663,Tibacuy,CO,2021-04-01 14:36:23,4.3511,-72.4564,82.06,70,94,1.14
664,Olonets,RU,2021-04-01 14:36:23,60.9847,32.9698,37.35,81,56,9.08
665,Vryburg,ZA,2021-04-01 14:36:24,-26.9566,24.7284,80.56,33,83,6.15
666,Karasjok,NO,2021-04-01 14:36:24,69.4719,25.5112,39.2,65,75,3.44
667,Shahkot,IN,2021-04-01 14:36:25,31.0775,75.3372,71.2,7,0,9.93
668,Chute-Aux-Outardes,CA,2021-04-01 14:36:26,49.1168,-68.399,33.8,86,90,10.36
669,Akyab,MM,2021-04-01 14:36:26,20.15,92.9,81.54,78,1,9.15
670,Koshki,RU,2021-04-01 14:36:27,54.2091,50.4677,36.09,96,100,18.01
671,Chadiza,ZM,2021-04-01 14:36:27,-14.0678,32.4392,68.43,82,92,7.05
672,Sept-Iles,CA,2021-04-01 14:36:25,50.2001,-66.3821,35.6,93,90,12.66
673,Nagaur,IN,2021-04-01 14:36:28,27.2,73.7333,84.85,4,0,9.37
674,Cabot,US,2021-04-01 14:36:28,34.9745,-92.0165,48.0,39,1,9.22
675,Kolaras,IN,2021-04-01 14:36:29,25.2333,77.6,84.07,7,0,6.33
676,San Felipe,VE,2021-04-01 14:36:29,10.3399,-68.7425,80.87,73,94,3.74
677,Salinopolis,BR,2021-04-01 14:36:30,-0.6136,-47.3561,80.02,82,100,2.15
678,San Bartolome Jocotenango,GT,2021-04-01 14:36:30,15.1928,-91.0772,55.4,88,75,4.79
679,Hengyang,CN,2021-04-01 14:36:31,26.8881,112.615,57.38,88,100,8.14
680,Bavleny,RU,2021-04-01 14:36:31,56.4,39.56,35.2,99,100,4.99
681,Erenhot,CN,2021-04-01 14:36:32,43.6475,111.9767,40.26,78,99,9.57
682,Culpeper,US,2021-04-01 14:36:32,38.5004,-77.9664,46.4,46,90,11.5
683,Sao Lourenco Do Sul,BR,2021-04-01 14:36:33,-31.3653,-51.9783,69.8,83,75,9.22
684,Churapcha,RU,2021-04-01 14:36:33,62.0025,132.4325,1.89,100,94,3.15
685,Osakarovka,KZ,2021-04-01 14:36:34,50.565,72.5692,7.68,94,5,5.1
686,Sinop,TR,2021-04-01 14:36:35,41.7711,34.8709,40.93,94,100,4.32
687,West Wendover,US,2021-04-01 14:32:29,40.7391,-114.0733,28.4,54,1,0.94
688,Weinan,CN,2021-04-01 14:36:35,34.5036,109.5089,51.01,100,90,2.24
689,Farah,AF,2021-04-01 14:36:36,32.5,62.5,69.3,16,0,8.93
690,Ponoka,CA,2021-04-01 14:36:36,52.6768,-113.5815,39.2,45,99,12.66
691,Bardiyah,LY,2021-04-01 14:36:37,31.7561,25.0865,60.24,56,31,22.59
692,Macia,MZ,2021-04-01 14:36:37,-25.0269,33.0989,82.44,52,44,8.16
693,Jati,PK,2021-04-01 14:36:38,24.3539,68.2671,90.95,9,0,11.81
694,Suez,EG,2021-04-01 14:36:38,29.9737,32.5263,71.13,24,67,15.3
695,Neiafu,TO,2021-04-01 14:36:39,-18.65,-173.9833,80.6,83,20,8.05
696,Oussouye,SN,2021-04-01 14:36:39,12.485,-16.5469,98.6,30,0,4.61
697,Ixtapa,MX,2021-04-01 14:36:40,20.7,-105.2,62.6,63,1,5.75
698,Robertsport,LR,2021-04-01 14:36:41,6.7533,-11.3686,83.41,73,29,10.89
699,Bondo,CD,2021-04-01 14:36:42,3.8146,23.6866,86.25,47,96,2.91
700,Koster,ZA,2021-04-01 14:36:43,-25.863,26.8976,75.67,28,72,2.62
701,San Lorenzo,PY,2021-04-01 14:36:44,-25.3333,-57.5333,78.8,47,0,6.91
702,Angoram,PG,2021-04-01 14:36:44,-4.0625,144.0661,74.12,98,100,1.63
703,Lianran,CN,2021-04-01 14:36:45,24.9227,102.485,66.0,42,0,6.71
704,Aljezur,PT,2021-04-01 14:34:29,37.3191,-8.8033,65.66,67,33,13.38
705,Mindelo,CV,2021-04-01 14:33:19,16.8901,-24.9804,77.0,57,40,25.32
706,Lhokseumawe,ID,2021-04-01 14:36:46,5.1801,97.1507,78.57,68,100,4.05
707,Iquitos,PE,2021-04-01 14:32:39,-3.7481,-73.2472,80.6,78,75,5.75
708,Bone,DE,2021-04-01 14:36:47,51.9669,12.1396,66.0,38,77,5.99
709,Gerash,IR,2021-04-01 14:36:47,27.6652,54.1371,93.2,13,0,9.22
710,Bratskoye,RU,2021-04-01 14:36:47,43.6536,44.8889,51.8,62,75,8.95
711,La Ronge,CA,2021-04-01 14:36:48,55.1001,-105.2842,26.6,86,91,3.44
712,Maldonado,UY,2021-04-01 14:36:48,-34.6667,-54.9167,68.0,88,75,11.5
713,Tsumeb,NA,2021-04-01 14:36:49,-19.2333,17.7167,70.48,66,100,4.38
714,Tingo Maria,PE,2021-04-01 14:36:49,-9.2895,-76.0088,73.4,88,75,2.3
715,Umm Lajj,SA,2021-04-01 14:36:50,25.0213,37.2685,74.08,45,0,19.37
716,Congonhas,BR,2021-04-01 14:36:05,-20.4997,-43.8578,82.4,54,20,5.75
717,Esso,RU,2021-04-01 14:36:51,55.9333,158.7,32.16,98,100,7.43
718,Cabra,ES,2021-04-01 14:36:51,37.4725,-4.4421,75.0,37,6,3.0
719,Mount Isa,AU,2021-04-01 14:36:52,-20.7333,139.5,77.0,36,0,5.75
720,Funtua,NG,2021-04-01 14:36:52,11.5233,7.3081,93.65,8,46,8.59
721,Ropcha,UA,2021-04-01 14:36:53,48.1199,25.7742,69.01,55,84,1.34
722,Mantua,IT,2021-04-01 14:36:54,45.1667,10.7833,78.01,31,96,4.61
723,Tilichiki,RU,2021-04-01 14:36:54,60.4667,166.1,24.76,96,100,7.07
724,Kuusamo,FI,2021-04-01 14:36:55,65.9667,29.1833,35.6,64,40,12.66
725,Porto Novo,BJ,2021-04-01 14:36:55,6.4965,2.6036,89.6,62,20,10.36
726,Cabcab,PH,2021-04-01 14:36:56,13.6268,124.0515,79.21,74,76,5.32
727,Karauli,IN,2021-04-01 14:36:24,26.5,77.0167,83.66,6,0,6.08
728,Susangerd,IR,2021-04-01 14:36:57,31.5608,48.1831,93.2,14,75,9.22
729,Nishihara,JP,2021-04-01 14:36:57,26.1842,127.7558,75.2,88,75,9.22
730,Terrace,CA,2021-04-01 14:36:58,54.5163,-128.6035,32.0,100,90,11.5
731,Urengoy,RU,2021-04-01 14:33:12,65.9667,78.3667,17.4,93,100,20.09
732,Abu Samrah,SY,2021-04-01 14:36:59,35.3029,37.1841,57.13,45,57,17.4
733,Rovaniemi,FI,2021-04-01 14:37:00,66.5,25.7167,39.2,48,0,6.91
734,Gao,ML,2021-04-01 14:37:00,16.6362,1.637,97.54,4,1,17.45
735,Strelka,RU,2021-04-01 14:37:01,58.0728,93.0344,28.45,94,100,8.86
736,Mvuma,ZW,2021-04-01 14:37:01,-19.2792,30.5283,74.19,32,69,7.7
737,Taoudenni,ML,2021-04-01 14:37:02,22.6783,-3.9836,102.52,4,66,11.36
738,Gornopravdinsk,RU,2021-04-01 14:37:02,60.05,69.9,31.44,97,100,7.72
739,Catia La Mar,VE,2021-04-01 14:37:03,10.6038,-67.0303,82.4,78,20,5.75
740,Tunceli,TR,2021-04-01 14:37:03,39.1083,39.5471,59.0,36,75,10.36
741,Wahiawa,US,2021-04-01 14:33:21,21.5028,-158.0236,73.0,94,75,7.56
742,San Cristobal,VE,2021-04-01 14:37:04,7.7669,-72.225,77.0,100,40,4.61
743,Hailey,US,2021-04-01 14:37:05,43.5196,-114.3153,30.99,63,1,11.5
744,Kitsuki,JP,2021-04-01 14:37:05,33.4167,131.6167,57.2,62,0,3.44
745,Shizunai,JP,2021-04-01 14:37:06,42.3339,142.3669,37.74,80,0,9.46
746,Santana Do Matos,BR,2021-04-01 14:37:06,-5.9575,-36.6556,93.43,40,86,10.42
747,Alpena,US,2021-04-01 14:37:07,45.0617,-83.4327,21.0,73,90,18.41
748,Kiama,AU,2021-04-01 14:37:07,-34.6833,150.8667,64.0,82,92,5.01
749,Volodarskiy,RU,2021-04-01 14:37:08,46.4013,48.5409,57.0,24,0,17.9
750,Udachnyy,RU,2021-04-01 14:37:08,66.4167,112.4,-11.31,96,100,10.04
751,Lai,TD,2021-04-01 14:37:09,9.3952,16.2989,100.42,7,92,4.65
752,Katobu,ID,2021-04-01 14:37:09,-4.9408,122.5276,77.29,91,99,2.73
753,Orhangazi,TR,2021-04-01 14:32:26,40.4892,29.3089,46.4,76,75,9.22
754,Marawi,PH,2021-04-01 14:37:10,7.9986,124.2928,70.57,95,79,0.96
755,San Ignacio,BZ,2021-04-01 14:32:14,17.1561,-89.0714,78.8,83,75,3.53
756,Cetraro,IT,2021-04-01 14:37:11,39.5166,15.9416,59.76,71,1,4.07
757,Aksu,CN,2021-04-01 14:37:11,41.1231,80.2644,43.65,62,100,11.25
758,Zakamensk,RU,2021-04-01 14:37:12,50.3741,103.2863,26.2,87,36,2.86
759,Puerto Narino,CO,2021-04-01 14:37:12,-3.7703,-70.3831,80.6,83,75,2.3
760,Carthage,TN,2021-04-01 14:37:13,36.8611,10.3316,71.6,37,0,9.22
761,Saint Andrews,US,2021-04-01 14:37:13,34.0454,-81.1293,54.0,40,1,12.66
762,Arbuzynka,UA,2021-04-01 14:37:14,47.9097,31.3196,57.36,40,4,6.38
763,Kalmunai,LK,2021-04-01 14:37:14,7.4167,81.8167,82.11,77,2,11.07
764,High Level,CA,2021-04-01 14:37:15,58.5169,-117.136,33.8,75,90,5.75
765,Marabba,SD,2021-04-01 14:37:15,12.35,32.1833,99.79,8,36,10.54
766,Puli,TW,2021-04-01 14:37:16,23.9664,120.9695,78.01,88,40,3.44
767,Marsaxlokk,MT,2021-04-01 14:37:16,35.8419,14.5431,66.2,52,0,10.36
768,Puerto Castilla,HN,2021-04-01 14:37:17,16.0167,-85.9667,80.6,83,40,6.82
769,La Rioja,ES,2021-04-01 14:37:17,42.25,-2.5,66.0,32,0,13.8
770,Vestmanna,FO,2021-04-01 14:37:18,62.1564,-7.1664,44.6,87,75,17.27
771,Wewak,PG,2021-04-01 14:37:18,-3.5534,143.6268,79.65,85,95,4.34
772,Gizo,SB,2021-04-01 14:37:19,-8.103,156.8419,82.18,76,70,6.49
773,Dwarka,IN,2021-04-01 14:37:19,22.2394,68.9678,80.51,66,2,10.8
774,Golfito,CR,2021-04-01 14:37:20,8.639,-83.166,86.81,63,73,1.66
775,Urusha,RU,2021-04-01 14:37:20,54.05,122.9,22.19,95,100,1.63
776,Varzea Da Palma,BR,2021-04-01 14:37:21,-17.5981,-44.7308,91.56,39,0,0.92
777,Denia,ES,2021-04-01 14:37:22,38.8408,0.1057,64.0,82,98,8.68
778,Nara,JP,2021-04-01 14:37:22,34.6851,135.8049,60.01,48,99,5.37
779,Alexandria,EG,2021-04-01 14:37:23,31.2156,29.9553,66.2,48,40,13.8
780,Matveyevka,RU,2021-04-01 14:37:24,52.15,56.1833,37.4,75,0,11.18
781,Cutervo,PE,2021-04-01 14:37:24,-6.379,-78.8157,56.64,82,94,5.19
782,Hambantota,LK,2021-04-01 14:37:25,6.1241,81.1185,82.4,83,0,6.91
783,Zeya,RU,2021-04-01 14:33:07,53.75,127.2667,27.75,92,100,4.14
784,Mogadishu,SO,2021-04-01 14:34:36,2.0371,45.3438,86.0,62,40,9.22
785,Poquoson,US,2021-04-01 14:37:26,37.1224,-76.3458,46.0,93,90,12.66
786,Estacion Coahuila,MX,2021-04-01 14:37:26,32.1939,-115.0017,66.2,14,75,6.91
787,Usinsk,RU,2021-04-01 14:37:27,65.9939,57.5281,32.27,98,100,9.89
788,Gold Coast,AU,2021-04-01 14:37:27,-28.0,153.4333,66.99,94,75,6.91
789,El Real De Santa Maria,PA,2021-04-01 14:37:28,8.109,-77.7325,86.22,72,76,2.15
790,Doha,QA,2021-04-01 14:37:00,25.2867,51.5333,95.0,39,0,6.91
791,Puerto Berrio,CO,2021-04-01 14:37:05,6.4916,-74.4033,87.48,62,92,3.65
792,Kalamare,BW,2021-04-01 14:37:29,-22.9337,26.5703,81.91,26,37,6.33
793,Chernyshevskiy,RU,2021-04-01 14:37:29,63.0128,112.4714,-17.91,97,64,4.68
794,Kampong Cham,KH,2021-04-01 14:37:30,11.9934,105.4635,88.75,53,43,13.67
795,Kwinana,AU,2021-04-01 14:37:30,-32.25,115.7667,75.99,56,11,6.91
796,Belomorsk,RU,2021-04-01 14:37:31,64.5232,34.7668,34.11,88,69,2.46
797,Venado Tuerto,AR,2021-04-01 14:37:31,-33.7456,-61.9688,75.99,27,0,4.0
798,Andra,RU,2021-04-01 14:37:32,62.5147,65.8878,28.42,95,99,5.37
799,Aksha,RU,2021-04-01 14:37:32,50.2814,113.2867,27.41,83,100,6.78
800,Bundaberg,AU,2021-04-01 14:37:33,-24.85,152.35,69.01,88,90,9.22
801,Bull Savanna,JM,2021-04-01 14:37:33,17.8868,-77.5902,81.5,56,0,7.11
802,Winslow,US,2021-04-01 14:37:34,35.0242,-110.6974,28.4,31,1,3.51
803,Lucea,JM,2021-04-01 14:37:34,18.451,-78.1736,82.4,74,20,13.8
804,Shakiso,ET,2021-04-01 14:37:35,5.75,38.9167,76.44,40,45,8.68
805,Jalingo,NG,2021-04-01 14:37:35,8.8833,11.3667,102.11,7,54,6.58
806,Beyneu,KZ,2021-04-01 14:37:36,45.3167,55.2,50.76,31,2,16.89
807,Sangar,RU,2021-04-01 14:33:13,63.9242,127.4739,20.3,95,100,10.02
808,Hackettstown,US,2021-04-01 14:35:20,40.854,-74.8291,37.99,75,100,10.36
809,Carutapera,BR,2021-04-01 14:37:37,-1.195,-46.02,83.08,81,88,5.77
810,Uray,RU,2021-04-01 14:37:37,60.1247,64.7758,32.68,96,100,6.06
811,Emerald,AU,2021-04-01 14:37:38,-23.5333,148.1667,71.6,60,40,6.91
812,Atherton,GB,2021-04-01 14:37:38,53.5237,-2.4935,52.0,61,26,4.0
813,Norsup,VU,2021-04-01 14:37:39,-16.0667,167.3833,80.19,82,100,3.15
814,Manga,BF,2021-04-01 14:37:39,11.6636,-1.0731,102.11,6,24,8.68
815,Pitimbu,BR,2021-04-01 14:37:40,-7.4706,-34.8086,87.8,62,40,11.5
816,Atambua,ID,2021-04-01 14:37:40,-9.1061,124.8925,73.31,90,100,2.35
817,Changde,CN,2021-04-01 14:37:41,29.0464,111.6783,53.24,89,100,9.24
818,Porbandar,IN,2021-04-01 14:37:41,21.6422,69.6093,80.76,66,0,12.97
819,Belfast,GB,2021-04-01 14:37:42,54.5833,-5.9333,53.01,71,75,13.8
820,Buritizeiro,BR,2021-04-01 14:35:24,-17.3511,-44.9622,90.72,40,0,2.64
821,Segou,ML,2021-04-01 14:37:43,13.4317,-6.2157,103.33,6,1,10.89
822,Moskovskiy,RU,2021-04-01 14:37:44,55.5991,37.355,45.0,100,90,6.71
823,Manthani,IN,2021-04-01 14:37:45,18.65,79.6667,93.61,15,24,4.05
824,Vanavara,RU,2021-04-01 14:37:46,60.34,102.2797,4.03,97,100,3.18
