City_ID,City,Country,Date,Lat,Lng,Max Temp,Humidity,Cloudiness,Wind Speed
0,Hamilton,US,2021-03-31 15:51:46,39.1834,-84.5333,48.0,61,75,13.8
1,Kirakira,SB,2021-03-31 15:53:43,-10.4544,161.9205,79.77,83,100,5.35
2,Severo-Kurilsk,RU,2021-03-31 15:53:43,50.6789,156.125,35.11,98,100,12.53
3,Labuhan,ID,2021-03-31 15:53:44,-6.8844,112.2051,77.67,92,100,6.58
4,Atuona,PF,2021-03-31 15:53:45,-9.8,-139.0333,79.83,77,58,11.5
5,Busselton,AU,2021-03-31 15:53:45,-33.65,115.3333,66.0,87,100,8.86
6,Cao Bang,VN,2021-03-31 15:53:46,22.6667,106.25,75.88,81,7,3.22
7,Esperance,AU,2021-03-31 15:49:47,-33.8667,121.9,64.4,88,39,10.36
8,Rikitea,PF,2021-03-31 15:53:47,-23.1203,-134.9692,79.03,71,54,18.34
9,Ancud,CL,2021-03-31 15:53:48,-41.8697,-73.8203,61.0,88,75,5.75
10,Christchurch,NZ,2021-03-31 15:49:35,-43.5333,172.6333,57.0,76,90,11.5
11,Kawalu,ID,2021-03-31 15:53:48,-7.3817,108.2082,72.82,94,85,1.19
12,Hilo,US,2021-03-31 15:53:49,19.7297,-155.09,69.8,83,90,6.91
13,Tutoia,BR,2021-03-31 15:53:49,-2.7619,-42.2744,87.8,70,40,16.11
14,Tasiilaq,GL,2021-03-31 15:50:41,65.6145,-37.6368,32.0,93,75,9.22
15,Klaksvik,FO,2021-03-31 15:53:50,62.2266,-6.589,39.2,65,40,19.57
16,Utena,LT,2021-03-31 15:53:51,55.5,25.6,54.73,69,13,13.35
17,Tuktoyaktuk,CA,2021-03-31 15:53:51,69.4541,-133.0374,-20.2,76,75,21.85
18,Ushuaia,AR,2021-03-31 15:51:29,-54.8,-68.3,46.4,61,0,0.96
19,Shingu,JP,2021-03-31 15:53:52,33.7333,135.9833,54.91,84,100,4.18
20,Bengkulu,ID,2021-03-31 15:53:52,-3.8004,102.2655,76.95,81,98,20.42
21,Airai,TL,2021-03-31 15:53:53,-8.9266,125.4092,59.61,96,99,2.28
22,Bluff,NZ,2021-03-31 15:53:53,-46.6,168.3333,41.0,91,4,1.99
23,Dikson,RU,2021-03-31 15:53:54,73.5069,80.5464,-23.58,94,42,5.21
24,Matara,LK,2021-03-31 15:53:54,5.9485,80.5353,79.43,87,95,6.31
25,Norman Wells,CA,2021-03-31 15:53:55,65.282,-126.8329,3.2,78,75,2.3
26,Jamestown,US,2021-03-31 15:50:28,42.097,-79.2353,45.0,93,90,14.97
27,Georgetown,MY,2021-03-31 15:52:20,5.4112,100.3354,82.0,89,20,2.3
28,Bambous Virieux,MU,2021-03-31 15:49:39,-20.3428,57.7575,82.4,78,20,1.14
29,Kapaa,US,2021-03-31 15:53:56,22.0752,-159.319,75.2,73,90,8.05
30,Ketchikan,US,2021-03-31 15:53:56,55.3422,-131.6461,37.4,100,90,18.41
31,Kaitangata,NZ,2021-03-31 15:53:57,-46.2817,169.8464,44.01,82,36,1.99
32,Hermanus,ZA,2021-03-31 15:53:57,-34.4187,19.2345,61.0,90,100,1.01
33,Huarmey,PE,2021-03-31 15:53:58,-10.0681,-78.1522,73.51,77,57,9.33
34,Yellowknife,CA,2021-03-31 15:50:01,62.456,-114.3525,3.2,72,75,6.91
35,Puerto Ayora,EC,2021-03-31 15:53:58,-0.7393,-90.3518,80.6,78,0,9.22
36,Avarua,CK,2021-03-31 15:53:59,-21.2078,-159.775,77.0,83,20,6.91
37,Akyab,MM,2021-03-31 15:53:59,20.15,92.9,79.68,86,8,9.19
38,San Patricio,US,2021-03-31 15:51:43,28.017,-97.5169,77.0,94,90,9.22
39,Mataura,NZ,2021-03-31 15:54:00,-46.1927,168.8643,41.0,91,9,1.99
40,Lagoa,PT,2021-03-31 15:54:01,39.05,-27.9833,58.84,77,89,9.66
41,Kodiak,US,2021-03-31 15:54:02,57.79,-152.4072,28.18,63,22,12.73
42,Gamboula,CF,2021-03-31 15:54:02,4.1178,15.1393,93.97,16,9,1.92
43,Coihaique,CL,2021-03-31 15:54:03,-45.5752,-72.0662,51.8,62,90,9.22
44,Bilma,NE,2021-03-31 15:54:03,18.6853,12.9164,84.94,7,0,5.26
45,Tessalit,ML,2021-03-31 15:50:57,20.1986,1.0114,93.9,4,48,12.33
46,Sinnamary,GF,2021-03-31 15:49:56,5.3833,-52.95,82.42,71,99,12.41
47,Aldershot,GB,2021-03-31 15:54:04,51.2483,-0.7639,69.01,55,77,4.61
48,Namalenga,TZ,2021-03-31 15:54:05,-10.95,39.1,73.06,85,31,1.74
49,Kavaratti,IN,2021-03-31 15:54:05,10.5669,72.642,84.31,76,4,14.7
50,Launceston,AU,2021-03-31 15:51:03,-41.45,147.1667,54.0,100,15,5.75
51,Lianyuan,CN,2021-03-31 15:54:06,27.6883,111.6642,61.7,95,97,5.23
52,Butaritari,KI,2021-03-31 15:54:07,3.0707,172.7902,80.53,83,87,12.86
53,Paamiut,GL,2021-03-31 15:54:08,61.994,-49.6678,27.66,78,98,7.92
54,Chokurdakh,RU,2021-03-31 15:54:08,70.6333,147.9167,-16.47,100,72,4.21
55,Punta Arenas,CL,2021-03-31 15:54:09,-53.15,-70.9167,46.4,71,0,8.05
56,Sing Buri,TH,2021-03-31 15:54:09,14.85,100.2333,87.01,65,32,11.52
57,Ostrovnoy,RU,2021-03-31 15:49:54,68.0531,39.5131,29.35,94,97,5.32
58,Port Alfred,ZA,2021-03-31 15:50:04,-33.5906,26.891,68.16,83,19,13.71
59,Albany,US,2021-03-31 15:54:10,42.6001,-73.9662,59.0,58,100,3.0
60,Yoichi,JP,2021-03-31 15:54:11,43.2039,140.7703,41.0,66,2,5.53
61,Lebu,CL,2021-03-31 15:50:36,-37.6167,-73.65,61.23,78,100,15.37
62,Kalmunai,LK,2021-03-31 15:50:50,7.4167,81.8167,81.18,83,96,10.71
63,Byron Bay,AU,2021-03-31 15:54:13,-28.65,153.6167,62.6,100,75,9.22
64,East London,ZA,2021-03-31 15:54:13,-33.0153,27.9116,68.0,73,0,13.8
65,Sokoto,NG,2021-03-31 15:52:22,13.0609,5.239,97.29,6,3,10.51
66,Poum,NC,2021-03-31 15:54:14,-20.2333,164.0167,78.48,77,100,11.23
67,Thompson,CA,2021-03-31 15:54:15,55.7435,-97.8558,5.0,51,20,3.44
68,Torbay,CA,2021-03-31 15:54:15,47.6666,-52.7314,33.01,69,40,12.66
69,Todos Santos,MX,2021-03-31 15:50:51,23.45,-110.2167,73.0,36,91,1.01
70,Cayenne,GF,2021-03-31 15:49:23,4.9333,-52.3333,84.2,74,75,12.66
71,Aktau,KZ,2021-03-31 15:54:16,43.65,51.2,48.2,43,0,8.95
72,Povenets,RU,2021-03-31 15:54:17,62.8487,34.8262,35.19,84,100,8.81
73,Masindi,UG,2021-03-31 15:54:17,1.6744,31.715,65.89,96,78,4.34
74,Bud,US,2021-03-31 15:54:18,39.447,-86.1758,46.0,43,5,14.27
75,Barrow,US,2021-03-31 15:54:18,71.2906,-156.7887,-9.4,64,1,19.57
76,Grindavik,IS,2021-03-31 15:54:19,63.8424,-22.4338,42.8,70,75,21.85
77,Pitanga,BR,2021-03-31 15:54:19,-24.7572,-51.7614,77.18,34,0,1.7
78,Pisco,PE,2021-03-31 15:54:19,-13.7,-76.2167,71.6,73,20,6.91
79,Carahue,CL,2021-03-31 15:54:20,-38.7,-73.1667,60.8,82,90,5.75
80,Bethel,US,2021-03-31 15:50:19,41.3712,-73.414,57.99,81,100,1.99
81,Berlevag,NO,2021-03-31 15:50:45,70.8578,29.0864,35.6,87,75,20.71
82,Qaanaaq,GL,2021-03-31 15:54:21,77.484,-69.3632,8.69,92,100,17.6
83,Vaini,TO,2021-03-31 15:54:21,-21.2,-175.2,78.8,89,20,5.75
84,Inuvik,CA,2021-03-31 15:54:22,68.3499,-133.7218,-4.0,84,100,8.05
85,Nanortalik,GL,2021-03-31 15:50:44,60.1432,-45.2371,32.52,94,90,7.92
86,Marzuq,YE,2021-03-31 15:54:23,14.4,46.4667,75.25,22,70,9.78
87,Kavieng,PG,2021-03-31 15:54:23,-2.5744,150.7967,81.36,76,99,4.85
88,Santa Maria,BR,2021-03-31 15:54:24,-29.6842,-53.8069,74.34,51,51,5.08
89,Yatou,CN,2021-03-31 15:54:24,37.15,122.3833,47.55,45,100,4.45
90,Castro,BR,2021-03-31 15:54:25,-24.7911,-50.0119,69.8,52,0,5.17
91,Kruisfontein,ZA,2021-03-31 15:54:25,-34.0033,24.7314,70.0,69,86,8.01
92,Sibolga,ID,2021-03-31 15:52:36,1.7427,98.7792,75.65,90,100,5.19
93,Hobart,AU,2021-03-31 15:52:36,-42.8794,147.3294,66.2,59,90,9.22
94,Hobyo,SO,2021-03-31 15:54:26,5.3505,48.5268,81.19,67,1,11.9
95,Arrecife,ES,2021-03-31 15:54:27,28.963,-13.5477,73.4,64,20,19.57
96,Kjollefjord,NO,2021-03-31 15:54:27,70.9457,27.3465,35.6,80,75,20.71
97,Cape Town,ZA,2021-03-31 15:54:28,-33.9258,18.4232,69.01,88,75,6.91
98,Necochea,AR,2021-03-31 15:54:28,-38.5473,-58.7368,72.0,47,28,4.0
99,Acarau,BR,2021-03-31 15:54:28,-2.8856,-40.12,83.79,73,91,11.21
100,Bosansko Grahovo,BA,2021-03-31 15:54:29,44.1794,16.3639,46.99,72,69,5.99
101,Faanui,PF,2021-03-31 15:50:22,-16.4833,-151.75,80.96,72,9,1.36
102,Baherden,TM,2021-03-31 15:50:56,38.4362,57.4316,61.48,34,88,10.49
103,Baniachang,BD,2021-03-31 15:54:30,24.5167,91.3667,74.7,90,15,7.56
104,Bathsheba,BB,2021-03-31 15:54:30,13.2167,-59.5167,84.2,54,40,29.93
105,Sobolevo,RU,2021-03-31 15:51:02,54.4299,31.8996,50.79,85,79,7.87
106,Illapel,CL,2021-03-31 15:54:31,-31.6308,-71.1653,75.78,47,0,6.73
107,Puquio,PE,2021-03-31 15:54:32,-14.7,-74.1333,60.08,57,100,1.66
108,Geraldton,AU,2021-03-31 15:54:33,-28.7667,114.6,71.6,83,51,9.22
109,Beloha,MG,2021-03-31 15:54:33,-25.1667,45.05,69.75,65,6,10.78
110,Khatanga,RU,2021-03-31 15:54:34,71.9667,102.5,-38.51,100,25,1.5
111,Pevek,RU,2021-03-31 15:50:46,69.7008,170.3133,-18.76,97,72,1.77
112,Warri,NG,2021-03-31 15:54:34,5.5167,5.75,90.77,52,92,10.63
113,Meadow Lake,US,2021-03-31 15:54:35,34.8014,-106.5436,45.0,32,1,6.91
114,Yangambi,CD,2021-03-31 15:54:35,0.8102,24.4336,75.02,81,91,4.18
115,Kuching,MY,2021-03-31 15:54:36,1.55,110.3333,78.01,100,20,2.3
116,Pangnirtung,CA,2021-03-31 15:54:36,66.1451,-65.7125,-11.2,70,90,3.44
117,Hay River,CA,2021-03-31 15:54:37,60.8156,-115.7999,19.4,73,100,4.61
118,Sur,OM,2021-03-31 15:49:28,22.5667,59.5289,80.78,59,17,1.48
119,Cabo San Lucas,MX,2021-03-31 15:54:38,22.8909,-109.9124,79.0,25,40,2.66
120,Shache,CN,2021-03-31 15:54:38,38.4167,77.2406,52.65,16,0,5.59
121,Ola,RU,2021-03-31 15:54:39,59.5833,151.2833,18.1,91,100,3.83
122,Beboto,TD,2021-03-31 15:54:39,8.2668,16.939,98.78,7,98,5.97
123,Andenes,NO,2021-03-31 15:54:39,69.3143,16.1194,37.4,81,75,8.05
124,Bijie,CN,2021-03-31 15:54:40,27.3125,105.2942,60.8,81,38,5.12
125,Vostok,RU,2021-03-31 15:54:41,46.4856,135.8833,26.58,92,97,3.51
126,Nikolskoye,RU,2021-03-31 15:54:41,59.7035,30.7861,41.0,81,40,15.66
127,Zhongxing,CN,2021-03-31 15:54:42,33.7039,118.6792,48.43,91,70,11.99
128,Sukhinichi,RU,2021-03-31 15:54:42,54.0999,35.3425,37.85,99,100,12.82
129,Lompoc,US,2021-03-31 15:54:43,34.6391,-120.4579,66.99,66,0,8.05
130,Ranong,TH,2021-03-31 15:54:43,9.9658,98.6348,79.83,86,100,8.61
131,Lavrentiya,RU,2021-03-31 15:49:36,65.5833,-171.0,-12.21,87,4,7.29
132,Bagdarin,RU,2021-03-31 15:54:44,54.4333,113.6,9.91,89,3,3.85
133,Kalevala,RU,2021-03-31 15:54:44,65.2,31.1667,36.09,82,53,12.86
134,Marawi,PH,2021-03-31 15:54:45,7.9986,124.2928,78.01,91,100,4.0
135,Mahebourg,MU,2021-03-31 15:54:45,-20.4081,57.7,82.4,78,20,1.14
136,Anzio,IT,2021-03-31 15:54:46,41.4853,12.6179,68.0,59,1,5.99
137,Sulina,RO,2021-03-31 15:54:46,45.1559,29.6536,44.13,64,7,7.94
138,Karwar,IN,2021-03-31 15:54:47,14.8,74.1333,81.1,71,26,11.5
139,Mar Del Plata,AR,2021-03-31 15:50:06,-38.0023,-57.5575,69.8,56,40,5.75
140,San Lawrenz,MT,2021-03-31 15:54:47,36.0553,14.204,66.2,39,0,10.36
141,Kalabo,ZM,2021-03-31 15:54:48,-14.97,22.6814,73.92,59,99,7.99
142,Ribeira Grande,PT,2021-03-31 15:50:26,38.5167,-28.7,60.8,72,20,21.85
143,Saint George,US,2021-03-31 15:54:49,37.1041,-113.5841,51.01,24,1,4.61
144,Burgeo,CA,2021-03-31 15:54:49,47.6167,-57.6152,30.24,70,10,6.33
145,Ayan,RU,2021-03-31 15:54:50,56.45,138.1667,15.75,80,6,8.97
146,Kirkuk,IQ,2021-03-31 15:51:05,35.4681,44.3922,69.44,29,5,9.6
147,Guerrero Negro,MX,2021-03-31 15:50:50,27.9769,-114.0611,67.48,46,44,3.13
148,College,US,2021-03-31 15:53:45,64.8569,-147.8028,19.4,93,75,1.36
149,Narsaq,GL,2021-03-31 15:54:51,60.9167,-46.05,37.4,81,75,1.14
150,Saint-Philippe,RE,2021-03-31 15:50:05,-21.3585,55.7679,80.6,83,49,11.5
151,Dunedin,NZ,2021-03-31 15:54:52,-45.8742,170.5036,46.99,83,40,1.01
152,Ballitoville,ZA,2021-03-31 15:54:52,-29.539,31.2144,77.0,78,0,8.05
153,Pinega,RU,2021-03-31 15:54:53,64.7001,43.3936,32.61,92,100,7.36
154,Fort Nelson,CA,2021-03-31 15:50:34,58.8053,-122.7002,26.6,93,75,4.61
155,Jalalabad,AF,2021-03-31 15:54:53,34.4265,70.4515,64.9,18,0,16.82
156,Moradabad,IN,2021-03-31 15:54:54,28.8333,78.7833,77.32,5,0,11.34
157,Belyy Yar,RU,2021-03-31 15:54:54,53.6039,91.3903,28.4,59,0,8.95
158,Bilibino,RU,2021-03-31 15:54:55,68.0546,166.4372,-1.8,88,100,3.67
159,Hambantota,LK,2021-03-31 15:54:55,6.1241,81.1185,82.4,89,0,6.91
160,Korem,ET,2021-03-31 15:54:56,12.5058,39.5228,62.92,34,37,7.36
161,Yulara,AU,2021-03-31 15:52:17,-25.2406,130.9889,66.2,34,0,6.91
162,Roros,NO,2021-03-31 15:54:56,62.5747,11.3842,33.8,69,75,11.5
163,Clyde River,CA,2021-03-31 15:52:43,70.4692,-68.5914,-5.8,59,75,12.66
164,Omboue,GA,2021-03-31 15:54:57,-1.5746,9.2618,75.06,91,100,8.63
165,Codrington,AU,2021-03-31 15:50:43,-38.2667,141.9667,60.24,68,76,5.59
166,Lerwick,GB,2021-03-31 15:54:58,60.1545,-1.1494,41.0,75,40,14.97
167,Ulaangom,MN,2021-03-31 15:51:33,49.9811,92.0667,28.54,45,91,0.98
168,Meulaboh,ID,2021-03-31 15:54:59,4.1363,96.1285,74.84,91,100,4.14
169,Mabaruma,GY,2021-03-31 15:54:59,8.2,-59.7833,84.2,74,40,13.8
170,Saskylakh,RU,2021-03-31 15:55:00,71.9167,114.0833,-31.7,100,99,7.25
171,New Norfolk,AU,2021-03-31 15:55:00,-42.7826,147.0587,63.0,70,94,4.25
172,Weinsberg,DE,2021-03-31 15:55:01,49.1503,9.2883,75.2,33,0,5.75
173,Hithadhoo,MV,2021-03-31 15:55:01,-0.6,73.0833,84.16,76,3,18.59
174,Kot Addu,PK,2021-03-31 15:55:02,30.4692,70.9671,84.2,34,0,1.45
175,Vestmannaeyjar,IS,2021-03-31 15:49:31,63.4427,-20.2734,41.0,65,20,6.91
176,Farnham,GB,2021-03-31 15:55:02,51.2143,-0.7959,68.0,55,79,4.61
177,Teya,RU,2021-03-31 15:55:03,60.3778,92.6267,-2.72,99,95,2.82
178,Upernavik,GL,2021-03-31 15:55:03,72.7868,-56.1549,1.45,70,80,30.09
179,Misratah,LY,2021-03-31 15:49:06,32.3754,15.0925,62.6,60,0,13.47
180,Mount Isa,AU,2021-03-31 15:55:04,-20.7333,139.5,75.2,35,0,6.91
181,Rundu,NA,2021-03-31 15:55:05,-17.9333,19.7667,72.57,59,98,5.88
182,Tezu,IN,2021-03-31 15:55:05,27.9167,96.1667,68.94,66,98,4.63
183,Ambilobe,MG,2021-03-31 15:52:20,-13.2,49.05,77.4,89,83,3.71
184,Lethem,GY,2021-03-31 15:49:58,3.3803,-59.7968,82.4,74,40,11.5
185,Sindor,RU,2021-03-31 15:55:06,62.8629,51.8905,32.85,90,100,9.04
186,Chicago,US,2021-03-31 15:44:06,41.85,-87.65,39.99,38,20,18.41
187,Hailey,US,2021-03-31 15:55:07,43.5196,-114.3153,28.99,40,1,10.36
188,Victoria,HK,2021-03-31 15:51:41,22.2855,114.1577,80.01,83,70,1.01
189,Aripuana,BR,2021-03-31 15:55:08,-9.1667,-60.6333,75.67,93,99,3.85
190,Areosa,PT,2021-03-31 15:55:08,41.7178,-8.8571,82.4,32,0,4.61
191,Topolobampo,MX,2021-03-31 15:50:17,25.6,-109.05,79.0,67,75,9.04
192,Port Blair,IN,2021-03-31 15:52:01,11.6667,92.75,81.16,75,100,4.61
193,Abnub,EG,2021-03-31 15:55:09,27.2696,31.1511,69.8,32,0,13.8
194,Bredasdorp,ZA,2021-03-31 15:55:10,-34.5322,20.0403,69.8,56,97,13.8
195,Mitu,CO,2021-03-31 15:55:10,1.1983,-70.1733,73.38,98,100,1.41
196,Leningradskiy,RU,2021-03-31 15:52:29,69.3833,178.4167,-20.67,93,13,5.64
197,Chernyshevskiy,RU,2021-03-31 15:55:11,63.0128,112.4714,-9.94,99,23,4.14
198,Parfenyevo,RU,2021-03-31 15:55:11,58.484,43.4088,34.99,99,100,7.65
199,Darbhanga,IN,2021-03-31 15:55:12,26.1667,85.9,81.34,16,0,6.42
200,Alofi,NU,2021-03-31 15:55:12,-19.0595,-169.9187,78.8,89,5,8.05
201,Prince Rupert,CA,2021-03-31 15:54:54,54.3161,-130.3201,41.0,93,90,11.5
202,Asfi,MA,2021-03-31 15:55:14,32.2994,-9.2372,66.51,60,8,9.62
203,Jibuti,DJ,2021-03-31 15:55:14,11.5,42.5,87.8,37,1,3.44
204,Katsuura,JP,2021-03-31 15:55:15,35.1333,140.3,60.01,75,78,1.99
205,Boda,CF,2021-03-31 15:52:07,4.3189,17.4695,90.99,29,18,7.67
206,Faya,SA,2021-03-31 15:49:16,18.3851,42.4509,75.2,35,40,9.22
207,Provideniya,RU,2021-03-31 15:50:42,64.3833,-173.3,-3.21,86,10,5.7
208,Sao Miguel Do Araguaia,BR,2021-03-31 15:55:17,-13.275,-50.1628,89.78,48,5,3.2
209,Chernyshevsk,RU,2021-03-31 15:55:18,52.5243,117.0174,21.56,70,10,2.33
210,Polessk,RU,2021-03-31 15:55:19,54.862,21.1028,53.6,37,0,15.66
211,Brumadinho,BR,2021-03-31 15:55:19,-20.1433,-44.1997,82.4,51,40,10.36
212,Camabatela,AO,2021-03-31 15:55:20,-8.1881,15.375,69.94,89,52,2.55
213,Rigaud,CA,2021-03-31 15:55:20,45.4793,-74.3024,54.0,67,100,1.99
214,Trairi,BR,2021-03-31 15:50:08,-3.2778,-39.2689,82.72,78,100,9.22
215,Terre-De-Bas,GP,2021-03-31 15:55:21,15.8501,-61.6442,87.8,69,75,14.97
216,Nelson Bay,AU,2021-03-31 15:55:22,-32.7167,152.15,64.0,100,90,6.91
217,Ponta Do Sol,PT,2021-03-31 15:50:27,32.6667,-17.1,68.0,60,40,16.11
218,Road Town,VG,2021-03-31 15:53:18,18.4167,-64.6167,81.0,69,40,11.5
219,Carnarvon,AU,2021-03-31 15:55:23,-24.8667,113.6333,78.8,83,0,8.05
220,Namibe,AO,2021-03-31 15:55:23,-15.1961,12.1522,80.6,69,40,17.27
221,Hailar,CN,2021-03-31 15:55:24,49.2,119.7,38.57,49,39,8.97
222,Schonebeck,DE,2021-03-31 15:55:24,52.0167,11.75,73.0,28,14,0.49
223,Belen,TR,2021-03-31 15:55:25,36.4891,36.2233,66.2,48,40,11.5
224,Bulawayo,ZW,2021-03-31 15:55:25,-20.15,28.5833,67.48,44,55,7.56
225,Sulya,IN,2021-03-31 15:53:07,12.5667,75.3833,86.0,74,40,9.22
226,Staryy Nadym,RU,2021-03-31 15:55:26,65.6118,72.6842,9.68,90,100,22.68
227,Bac Lieu,VN,2021-03-31 15:55:27,9.285,105.7244,82.15,67,100,8.39
228,Zheleznodorozhnyy,RU,2021-03-31 15:55:27,55.7503,38.0042,41.0,93,90,11.18
229,Kargasok,RU,2021-03-31 15:55:28,59.0556,80.8572,16.79,94,99,8.05
230,Mitsamiouli,KM,2021-03-31 15:51:23,-11.3847,43.2844,83.41,73,60,14.43
231,Blue Springs,US,2021-03-31 15:55:29,39.0169,-94.2816,45.0,33,1,20.71
232,Kaeo,NZ,2021-03-31 15:55:29,-35.1,173.7833,57.0,95,5,7.16
233,Bereda,ES,2021-03-31 15:49:32,43.2686,-7.5406,82.0,41,0,5.75
234,Fortuna,US,2021-03-31 15:51:30,40.5982,-124.1573,46.4,71,1,8.05
235,Barauna,BR,2021-03-31 15:55:30,-5.08,-37.6167,88.27,52,100,8.66
236,Tibacuy,CO,2021-03-31 15:55:31,4.3511,-72.4564,86.05,57,99,11.12
237,Coquimbo,CL,2021-03-31 15:55:31,-29.9533,-71.3436,62.6,72,20,9.22
238,Ust-Kuyga,RU,2021-03-31 15:52:22,70.0167,135.6,-6.83,98,100,1.88
239,Inta,RU,2021-03-31 15:55:32,66.0317,60.1659,28.27,84,100,11.45
240,Quebrada Larga,HN,2021-03-31 15:55:33,14.1,-86.3667,77.32,71,98,5.23
241,Tomakivka,UA,2021-03-31 15:55:33,47.8157,34.7414,51.8,62,0,6.71
242,Meleuz,RU,2021-03-31 15:55:34,52.9667,55.9167,29.98,90,80,13.78
243,Sioux Lookout,CA,2021-03-31 15:55:34,50.1001,-91.917,10.4,61,40,11.5
244,Dingle,PH,2021-03-31 15:49:14,10.9995,122.6711,77.07,85,58,6.91
245,Isangel,VU,2021-03-31 15:55:35,-19.55,169.2667,77.88,89,100,9.1
246,Vardo,NO,2021-03-31 15:49:45,70.3705,31.1107,35.6,87,75,24.16
247,Kysyl-Syr,RU,2021-03-31 15:55:36,63.8986,122.7617,17.89,87,100,8.63
248,Padang,ID,2021-03-31 15:55:37,-0.9492,100.3543,77.0,83,40,5.75
249,Eydhafushi,MV,2021-03-31 15:55:37,5.1033,73.0708,84.2,74,99,10.16
250,Zvishavane,ZW,2021-03-31 15:55:38,-20.3267,30.0665,67.87,45,78,6.04
251,Mayo,US,2021-03-31 15:55:38,38.8876,-76.5119,66.99,82,75,11.5
252,Hami,CN,2021-03-31 15:55:39,42.8,93.45,46.69,35,60,7.67
253,Verdun,FR,2021-03-31 15:55:40,49.25,5.3333,71.01,58,3,7.0
254,Puerto Quijarro,BO,2021-03-31 15:55:41,-17.7833,-57.7667,93.65,37,5,4.92
255,Negombo,LK,2021-03-31 15:55:42,7.2083,79.8358,84.2,79,40,5.75
256,Barbastro,ES,2021-03-31 15:55:44,42.0356,0.1269,71.6,19,0,10.36
257,Punta Gorda,US,2021-03-31 15:54:24,26.9298,-82.0454,84.0,65,40,11.5
258,Shubarshi,KZ,2021-03-31 15:55:46,48.5872,57.1869,14.47,89,5,3.04
259,Husavik,IS,2021-03-31 15:55:48,66.0449,-17.3389,41.0,48,20,19.57
260,Auki,SB,2021-03-31 15:50:30,-8.7676,160.7034,77.41,85,99,1.99
261,Bondo,CD,2021-03-31 15:55:49,3.8146,23.6866,86.41,41,95,2.57
262,San Cristobal,VE,2021-03-31 15:55:50,7.7669,-72.225,78.8,89,75,4.61
263,Burshtyn,UA,2021-03-31 15:55:51,49.2587,24.6278,59.0,63,40,4.47
264,Alfredo Chaves,BR,2021-03-31 15:55:51,-20.635,-40.7497,89.6,58,20,6.91
265,Chara,RU,2021-03-31 15:50:46,56.9064,118.2631,9.05,71,53,3.22
266,Xining,CN,2021-03-31 15:49:41,36.6167,101.7667,35.4,91,100,3.09
267,Sao Filipe,CV,2021-03-31 15:51:49,14.8961,-24.4956,72.91,70,39,13.33
268,Parrita,CR,2021-03-31 15:55:55,9.5201,-84.3225,82.4,65,40,19.57
269,Orlik,RU,2021-03-31 15:55:55,52.5178,99.825,1.94,86,80,2.57
270,Kortkeros,RU,2021-03-31 15:55:56,61.8106,51.5806,35.6,93,75,4.47
271,Rawson,AR,2021-03-31 15:48:07,-43.3002,-65.1023,60.22,87,100,23.42
272,Horqueta,PY,2021-03-31 15:55:56,-23.3428,-57.0597,85.1,31,38,5.14
273,Grand Gaube,MU,2021-03-31 15:55:57,-20.0064,57.6608,77.0,87,17,1.99
274,Puerto Escondido,MX,2021-03-31 15:53:47,15.85,-97.0667,86.0,89,1,5.3
275,Oxelosund,SE,2021-03-31 15:55:58,58.6706,17.1015,42.8,100,75,4.61
276,Vicuna,CL,2021-03-31 15:55:58,-30.0319,-70.7081,81.0,22,0,1.01
277,Chuy,UY,2021-03-31 15:47:17,-33.6971,-53.4616,72.28,51,26,10.96
278,Mana,GF,2021-03-31 15:55:59,5.6592,-53.7767,83.82,64,80,10.49
279,Sakakah,SA,2021-03-31 15:48:28,29.9697,40.2064,73.4,25,0,16.11
280,Karratha,AU,2021-03-31 15:48:01,-20.7377,116.8463,82.54,52,2,5.53
281,Shemonaikha,KZ,2021-03-31 15:56:00,50.6328,81.9056,19.36,91,85,4.05
282,Linkou,CN,2021-03-31 15:56:01,45.3,130.2833,38.89,67,1,3.22
283,Hovd,MN,2021-03-31 15:56:01,48.0056,91.6419,30.58,46,96,2.3
284,Ahipara,NZ,2021-03-31 15:48:11,-35.1667,173.1667,60.84,89,22,7.61
285,La Asuncion,VE,2021-03-31 15:55:04,11.0333,-63.8628,80.1,71,69,17.22
286,Sangar,RU,2021-03-31 15:46:47,63.9242,127.4739,23.04,95,100,10.29
287,Guapore,BR,2021-03-31 15:56:03,-28.8456,-51.8903,73.0,59,65,1.01
288,Turbat,PK,2021-03-31 15:56:04,26.0023,63.044,85.35,7,0,21.0
289,Palmer,US,2021-03-31 15:47:17,42.1584,-72.3287,62.01,67,90,11.5
290,Smithers,CA,2021-03-31 15:56:05,54.7804,-127.1743,33.8,80,75,2.3
291,San Jose,US,2021-03-31 15:51:25,37.3394,-121.895,61.0,50,1,2.19
292,Khani,GE,2021-03-31 15:56:05,41.9563,42.9566,60.8,36,0,26.46
293,Kutum,SD,2021-03-31 15:56:06,14.2,24.6667,82.6,10,55,8.72
294,Mahajanga,MG,2021-03-31 15:56:06,-15.7167,46.3167,84.2,74,20,5.75
295,Bosaso,SO,2021-03-31 15:56:07,11.2842,49.1816,80.55,67,100,3.85
296,Buchanan,LR,2021-03-31 15:56:07,5.8808,-10.0467,87.8,70,75,5.75
297,Ayabaca,PE,2021-03-31 15:56:08,-4.6398,-79.7149,62.62,58,88,3.65
298,Fare,PF,2021-03-31 15:52:04,-16.7,-151.0167,80.74,73,14,3.0
299,Arraial Do Cabo,BR,2021-03-31 15:46:55,-22.9661,-42.0278,82.4,69,20,20.71
300,Marsa Matruh,EG,2021-03-31 15:51:51,31.3525,27.2453,62.6,42,20,13.8
301,San Quintin,MX,2021-03-31 15:56:10,30.4833,-115.95,67.01,45,34,0.04
302,Yeppoon,AU,2021-03-31 15:56:10,-23.1333,150.7333,68.0,73,27,9.22
303,Qingyuan,CN,2021-03-31 15:56:06,23.7,113.0333,78.01,83,20,4.47
304,Muroto,JP,2021-03-31 15:56:11,33.2833,134.15,61.86,59,100,3.8
305,Longyearbyen,SJ,2021-03-31 15:43:31,78.2186,15.6401,28.4,69,75,2.3
306,Mackenzie,CA,2021-03-31 15:56:12,55.2999,-123.1698,37.4,60,75,8.05
307,Ambovombe,MG,2021-03-31 15:56:13,-25.1667,46.0833,70.88,69,26,10.89
308,Vila Franca Do Campo,PT,2021-03-31 15:47:12,37.7167,-25.4333,60.8,82,75,5.75
309,Cidreira,BR,2021-03-31 15:46:53,-30.1811,-50.2056,74.28,55,4,14.54
310,Turukhansk,RU,2021-03-31 15:56:14,65.8167,87.9833,-11.63,100,99,4.79
311,Nishihara,JP,2021-03-31 15:56:14,26.1842,127.7558,73.4,94,90,11.5
312,Souillac,MU,2021-03-31 15:56:15,-20.5167,57.5167,82.4,78,20,1.14
313,Ankazoabo,MG,2021-03-31 15:56:15,-22.2833,44.5167,73.13,54,0,5.7
314,Searcy,US,2021-03-31 15:55:29,35.2506,-91.7363,42.15,66,100,15.77
315,Northport,US,2021-03-31 15:56:16,33.229,-87.5772,64.4,100,90,8.21
316,Kedougou,SN,2021-03-31 15:56:17,12.5579,-12.1743,105.8,20,0,4.61
317,Honiara,SB,2021-03-31 15:47:37,-9.4333,159.95,77.76,86,100,3.13
318,Sarakhs,IR,2021-03-31 15:52:35,36.5449,61.1577,62.6,27,10,4.61
319,Nuevo Progreso,MX,2021-03-31 15:56:18,23.1667,-97.95,81.0,69,100,3.0
320,Talnakh,RU,2021-03-31 15:47:02,69.4865,88.3972,-21.46,84,6,3.0
321,Marquette,US,2021-03-31 15:53:46,46.5333,-87.6335,27.0,60,100,12.71
322,Alyangula,AU,2021-03-31 15:56:19,-13.8483,136.4192,79.57,61,97,10.89
323,Napier,NZ,2021-03-31 15:56:19,-39.4833,176.9167,64.0,88,11,5.99
324,Karatau,KZ,2021-03-31 15:56:20,43.1667,70.4667,37.29,76,44,4.38
325,Vanimo,PG,2021-03-31 15:56:20,-2.6741,141.3028,76.39,81,100,4.94
326,Yeniseysk,RU,2021-03-31 15:56:21,58.4497,92.1703,6.67,92,24,5.21
327,Tiksi,RU,2021-03-31 15:47:50,71.6872,128.8694,0.99,98,100,10.33
328,Bull Savanna,JM,2021-03-31 15:56:22,17.8868,-77.5902,83.48,55,2,16.69
329,Sabang,ID,2021-03-31 15:56:22,5.8933,95.3214,82.15,73,98,27.63
330,Shatsk,RU,2021-03-31 15:56:23,54.0258,41.7119,34.97,97,100,18.79
331,Sorland,NO,2021-03-31 15:47:05,67.667,12.6934,41.0,81,40,16.11
332,Iracoubo,GF,2021-03-31 15:56:23,5.4802,-53.2011,82.38,70,96,11.32
333,Tabas,IR,2021-03-31 15:49:02,33.5959,56.9244,69.67,13,11,6.13
334,Kidal,ML,2021-03-31 15:56:24,18.4411,1.4078,93.2,4,0,14.88
335,Praia Da Vitoria,PT,2021-03-31 15:56:25,38.7333,-27.0667,63.0,77,20,3.83
336,Bantry,IE,2021-03-31 15:56:25,51.6833,-9.45,57.2,77,75,9.22
337,Yumen,CN,2021-03-31 15:56:26,40.2833,97.2,46.74,47,100,11.34
338,Avera,US,2021-03-31 15:48:18,33.194,-82.5271,77.0,78,75,14.97
339,Port Lincoln,AU,2021-03-31 15:47:36,-34.7333,135.8667,67.33,62,56,6.69
340,Albacete,ES,2021-03-31 15:56:28,38.8333,-2.0,69.8,28,0,11.5
341,Biltine,TD,2021-03-31 15:56:28,14.5333,20.9167,91.94,8,3,9.37
342,Polunochnoye,RU,2021-03-31 15:48:55,60.8697,60.4153,31.01,83,100,9.62
343,Banff,CA,2021-03-31 15:54:43,51.1762,-115.5698,33.8,68,71,6.91
344,Port Elizabeth,ZA,2021-03-31 15:47:28,-33.918,25.5701,64.4,88,75,23.02
345,Saldanha,ZA,2021-03-31 15:48:41,-33.0117,17.9442,68.0,73,74,14.97
346,Eureka,US,2021-03-31 15:51:30,40.8021,-124.1637,46.4,87,1,3.44
347,Tilichiki,RU,2021-03-31 15:56:30,60.4667,166.1,18.5,96,100,2.15
348,Blythe,US,2021-03-31 15:56:30,33.6103,-114.5964,64.4,7,1,18.41
349,Menongue,AO,2021-03-31 15:56:31,-14.6585,17.691,68.41,86,81,5.21
350,Bouca,CF,2021-03-31 15:56:31,6.5105,18.2733,97.27,15,6,1.68
351,Kahului,US,2021-03-31 15:51:54,20.8947,-156.47,69.01,100,1,6.04
352,Port Macquarie,AU,2021-03-31 15:56:32,-31.4333,152.9167,62.6,94,75,9.22
353,Asau,RO,2021-03-31 15:56:33,46.4333,26.4,57.2,30,90,3.44
354,Nemuro,JP,2021-03-31 15:56:33,43.3236,145.575,36.63,86,100,11.86
355,Visnes,NO,2021-03-31 15:56:34,59.3556,5.2242,42.8,75,0,21.85
356,Caravelas,BR,2021-03-31 15:56:34,-17.7125,-39.2481,91.15,46,0,12.24
357,Cherskiy,RU,2021-03-31 15:48:10,68.75,161.3,-3.05,89,100,3.87
358,Zhigansk,RU,2021-03-31 15:47:45,66.7697,123.3711,14.67,91,100,9.84
359,Santa Maria Del Oro,MX,2021-03-31 15:56:36,25.9333,-105.3667,71.22,10,25,6.55
360,Biak,ID,2021-03-31 15:56:36,-0.9131,122.8766,77.97,80,85,2.89
361,Gazanjyk,TM,2021-03-31 15:56:37,39.2446,55.5154,59.58,34,100,15.35
362,Xuanhua,CN,2021-03-31 15:56:37,40.6103,115.0447,56.08,29,100,7.92
363,Sibu,MY,2021-03-31 15:56:38,2.3,111.8167,78.8,89,20,2.3
364,Anadyr,RU,2021-03-31 15:56:38,64.75,177.4833,-9.0,77,0,4.47
365,Den Helder,NL,2021-03-31 15:56:39,52.9599,4.7593,66.99,51,90,6.91
366,Del Rio,US,2021-03-31 15:55:09,29.3627,-100.8968,62.6,36,90,18.41
367,Portland,US,2021-03-31 15:46:18,45.5234,-122.6762,43.0,87,20,2.82
368,Alice Springs,AU,2021-03-31 15:56:40,-23.7,133.8833,57.2,72,0,2.3
369,Los Llanos De Aridane,ES,2021-03-31 15:51:40,28.6585,-17.9182,71.6,43,20,9.22
370,Kasane,BW,2021-03-31 15:56:41,-17.8167,25.15,84.2,37,0,9.22
371,Raychikhinsk,RU,2021-03-31 15:56:41,49.7838,129.4121,34.68,42,0,2.62
372,High Rock,BS,2021-03-31 15:56:42,26.6208,-78.2833,82.4,69,75,14.97
373,Ambanja,MG,2021-03-31 15:56:42,-13.6833,48.45,77.67,90,76,0.72
374,Ekibastuz,KZ,2021-03-31 15:56:42,51.6667,75.3667,16.97,88,14,2.24
375,Barra Do Garcas,BR,2021-03-31 15:54:30,-15.89,-52.2567,90.93,45,2,0.36
376,Jinchang,CN,2021-03-31 15:56:43,38.4953,102.1739,40.96,68,100,6.64
377,Namatanai,PG,2021-03-31 15:48:13,-3.6667,152.4333,78.89,79,94,1.05
378,Sfantu Gheorghe,RO,2021-03-31 15:56:05,45.8667,25.7833,53.01,50,99,3.02
379,Ilulissat,GL,2021-03-31 15:56:44,69.2167,-51.1,15.8,57,75,5.75
380,Nogliki,RU,2021-03-31 15:56:45,51.8333,143.1667,20.14,95,76,5.14
381,Andros Town,BS,2021-03-31 15:55:14,24.7,-77.7667,82.4,57,20,17.27
382,Carrboro,US,2021-03-31 15:56:46,35.9101,-79.0753,70.0,86,100,1.01
383,San Francisco,US,2021-03-31 15:56:40,37.7749,-122.4194,60.8,54,1,6.91
384,Nova Olimpia,BR,2021-03-31 15:56:47,-14.7972,-57.2881,90.48,47,32,3.47
385,Buala,SB,2021-03-31 15:46:47,-8.145,159.5921,79.39,78,84,1.19
386,Aras,ES,2021-03-31 15:56:47,42.5617,-2.356,71.6,24,0,16.11
387,Encarnacion,PY,2021-03-31 15:56:48,-27.3333,-55.9,75.2,53,0,4.61
388,Fort-Shevchenko,KZ,2021-03-31 15:56:48,44.5086,50.263,48.76,49,9,12.59
389,Cooma,AU,2021-03-31 15:56:49,-36.2333,149.1333,41.0,93,49,2.04
390,Pinheiro Machado,BR,2021-03-31 15:56:49,-31.5783,-53.3811,71.01,76,8,10.0
391,Kindia,GN,2021-03-31 15:56:50,10.0569,-12.8658,98.28,23,32,4.23
392,Seryshevo,RU,2021-03-31 15:56:51,51.0933,128.3786,35.6,46,38,7.23
393,Salalah,OM,2021-03-31 15:53:17,17.0151,54.0924,91.4,33,0,4.61
394,Yenagoa,NG,2021-03-31 15:56:51,4.9247,6.2642,90.59,49,55,10.92
395,Price,US,2021-03-31 15:47:25,39.5994,-110.8107,35.6,32,1,3.44
396,Lovozero,RU,2021-03-31 15:56:52,68.005,35.0117,31.84,98,100,14.32
397,Belaya Gora,RU,2021-03-31 15:56:53,68.5333,146.4167,-14.62,100,99,1.57
398,Juneau,US,2021-03-31 15:52:24,58.3019,-134.4197,37.4,81,90,33.38
399,Payo,ID,2021-03-31 15:56:53,-3.7508,103.6372,73.18,98,92,3.22
400,Sao Joao Da Barra,BR,2021-03-31 15:56:54,-21.6403,-41.0511,84.2,65,0,6.91
401,Kiruna,SE,2021-03-31 15:56:54,67.8557,20.2251,37.4,60,0,17.27
402,Verkhnevilyuysk,RU,2021-03-31 15:56:55,63.4453,120.3167,12.65,87,84,8.3
403,Naze,JP,2021-03-31 15:52:24,28.3667,129.4833,65.77,79,100,10.0
404,Manubul,PH,2021-03-31 15:56:56,5.4732,120.7986,82.11,72,86,13.91
405,Mumbwa,ZM,2021-03-31 15:56:56,-14.9783,27.0619,66.92,75,54,4.85
406,Mariental,NA,2021-03-31 15:56:57,-24.6333,17.9667,78.96,34,85,6.53
407,Vila Do Maio,CV,2021-03-31 15:56:57,15.1333,-23.2167,77.0,53,40,27.63
408,Maxixe,MZ,2021-03-31 15:56:58,-23.8597,35.3472,72.91,72,2,7.74
409,Dubna,RU,2021-03-31 15:56:58,56.7333,37.1667,42.48,97,100,11.65
410,Champerico,GT,2021-03-31 15:56:59,14.3,-91.9167,86.0,58,1,6.58
411,Tubuala,PA,2021-03-31 15:56:59,9.5167,-79.0333,91.0,58,40,10.36
412,Iqaluit,CA,2021-03-31 15:47:00,63.7506,-68.5145,-5.01,71,90,8.05
413,Hasaki,JP,2021-03-31 15:47:23,35.7333,140.8333,55.99,82,75,2.3
414,Huoqiu,CN,2021-03-31 15:57:00,32.3394,116.2694,52.52,92,100,7.16
415,Maceio,BR,2021-03-31 15:57:01,-9.6658,-35.7353,89.6,58,40,11.5
416,Shurob,TJ,2021-03-31 15:57:01,40.0491,70.5489,40.28,66,96,5.97
417,Mto Wa Mbu,TZ,2021-03-31 15:57:02,-3.35,35.85,73.98,73,78,2.28
418,Kilindoni,TZ,2021-03-31 15:57:02,-7.9139,39.6668,83.64,69,94,16.26
419,Kita,ML,2021-03-31 15:57:03,13.0349,-9.4895,105.1,4,92,4.76
420,Monrovia,LR,2021-03-31 15:57:03,6.3005,-10.7969,87.8,70,75,5.75
421,Saint Anthony,US,2021-03-31 15:57:04,45.0205,-93.218,28.99,43,1,16.11
422,Mwandiga,TZ,2021-03-31 15:57:06,-4.83,29.6581,77.0,73,75,4.34
423,Baglan,AF,2021-03-31 15:57:07,36.1307,68.7083,53.4,54,4,4.0
424,Miri,MY,2021-03-31 15:57:07,4.4148,114.0089,78.8,89,20,2.3
425,Touros,BR,2021-03-31 15:55:19,-5.1989,-35.4608,87.8,58,75,13.8
426,Acapulco,MX,2021-03-31 15:55:47,16.8634,-99.8901,86.09,41,50,3.6
427,Iguape,BR,2021-03-31 15:57:09,-24.7081,-47.5553,75.69,67,48,9.78
428,La Crosse,US,2021-03-31 15:54:13,43.8014,-91.2396,33.8,44,90,19.57
429,Aasiaat,GL,2021-03-31 15:57:10,68.7098,-52.8699,16.88,79,100,10.42
430,Tikrit,IQ,2021-03-31 15:57:11,34.6071,43.6782,75.58,18,7,11.16
431,Tuatapere,NZ,2021-03-31 15:57:12,-46.1333,167.6833,41.0,91,10,1.99
432,Luderitz,NA,2021-03-31 15:57:13,-26.6481,15.1594,72.05,55,0,19.22
433,Cap Malheureux,MU,2021-03-31 15:57:14,-19.9842,57.6142,77.0,87,20,1.99
434,Lata,PT,2021-03-31 15:57:15,40.1629,-8.3327,82.0,28,66,13.87
435,Fuzhou,CN,2021-03-31 15:57:15,26.0614,119.3061,60.8,100,90,2.24
436,Imbituba,BR,2021-03-31 15:57:16,-28.24,-48.6703,78.8,50,20,18.41
437,Nanakuli,US,2021-03-31 15:57:16,21.3906,-158.1547,69.8,78,1,4.61
438,Monte Alegre,BR,2021-03-31 15:57:17,-2.0078,-54.0692,83.46,70,97,5.48
439,Paka,MY,2021-03-31 15:57:17,4.6374,103.4368,78.8,100,95,1.14
440,Wuxi,CN,2021-03-31 15:57:18,31.5689,120.2886,60.01,83,100,3.0
441,Samarai,PG,2021-03-31 15:57:18,-10.6167,150.6667,81.68,77,92,2.84
442,Maarianhamina,AX,2021-03-31 15:57:19,60.0973,19.9348,42.8,56,0,5.75
443,Cairns,AU,2021-03-31 15:57:19,-16.9167,145.7667,77.0,69,75,13.8
444,Atar,MR,2021-03-31 15:47:43,20.5169,-13.0499,102.34,9,43,11.18
445,Morondava,MG,2021-03-31 15:57:20,-20.2833,44.2833,80.31,63,0,14.14
446,Tura,IN,2021-03-31 15:57:21,25.5198,90.2201,70.52,86,1,3.47
447,Ndele,CF,2021-03-31 15:57:22,8.4109,20.6473,93.9,21,92,2.51
448,Moerai,PF,2021-03-31 15:57:22,-22.4333,-151.3333,79.7,77,12,19.28
449,Allahabad,IN,2021-03-31 15:57:23,25.45,81.85,84.78,5,0,8.88
450,Vallenar,CL,2021-03-31 15:57:23,-28.5708,-70.7581,77.05,34,0,6.31
451,Gunjur,GM,2021-03-31 15:57:24,13.2019,-16.7339,86.0,42,0,11.5
452,Nyurba,RU,2021-03-31 15:57:24,63.2842,118.3319,9.28,90,51,7.83
453,Aubenas,FR,2021-03-31 15:57:25,44.6201,4.3899,75.2,25,0,16.11
454,Dubai,AE,2021-03-31 15:55:17,25.2582,55.3047,80.6,65,0,8.05
455,Laguna,US,2021-03-31 15:57:25,38.421,-121.4238,60.01,54,1,5.93
456,Lamlash,GB,2021-03-31 15:57:26,55.5336,-5.1296,53.6,76,40,18.41
457,Soure,BR,2021-03-31 15:57:26,-0.7167,-48.5233,80.58,79,100,8.19
458,Bonavista,CA,2021-03-31 15:57:27,48.6499,-53.1147,37.4,38,34,2.3
459,Aksarka,RU,2021-03-31 15:57:27,66.5606,67.7975,19.49,92,100,18.01
460,Isla Vista,US,2021-03-31 15:57:28,34.4133,-119.861,71.01,87,1,0.74
461,Thongwa,MM,2021-03-31 15:57:28,16.7619,96.5278,86.0,70,40,8.05
462,Cervo,ES,2021-03-31 15:57:34,43.6702,-7.4101,66.9,57,22,6.87
463,Buena Vista,US,2021-03-31 15:57:34,43.4203,-83.8986,42.8,42,1,14.97
464,Tuy Hoa,VN,2021-03-31 15:57:35,13.0833,109.3,75.16,91,83,5.93
465,Grand Baie,MU,2021-03-31 15:57:35,-20.0182,57.5802,77.0,87,28,1.99
466,Vastseliina,EE,2021-03-31 15:57:37,57.7303,27.2932,44.6,87,90,11.18
467,Igarka,RU,2021-03-31 15:57:37,67.4667,86.5833,-23.37,100,83,2.66
468,Madang,PG,2021-03-31 15:55:23,-5.2246,145.7966,76.19,91,100,4.7
469,Santa Rosa,PH,2021-03-31 15:57:38,14.3122,121.1114,84.2,70,20,6.91
470,Uvira,CD,2021-03-31 15:57:39,-3.4067,29.1458,75.34,84,81,5.39
471,Galbshtadt,RU,2021-03-31 15:57:39,53.2264,78.9845,13.69,95,96,6.04
472,Kirensk,RU,2021-03-31 15:57:40,57.7853,108.1119,24.76,85,99,11.83
473,Korla,CN,2021-03-31 15:57:40,41.7597,86.1469,46.24,61,22,4.76
474,Hokitika,NZ,2021-03-31 15:55:49,-42.7167,170.9667,57.74,75,92,6.87
475,Mugumu,TZ,2021-03-31 15:57:41,-1.85,34.7,61.72,94,56,6.33
476,Kishorganj,BD,2021-03-31 15:57:42,24.4333,90.7667,79.72,81,8,13.71
477,Port Hedland,AU,2021-03-31 15:57:42,-20.3167,118.5667,77.0,57,0,6.91
478,Oil City,US,2021-03-31 15:57:43,41.4339,-79.7064,46.99,100,90,9.22
479,Adrar,MR,2021-03-31 15:57:43,20.5022,-10.0711,100.22,5,7,8.68
480,Shubarkuduk,KZ,2021-03-31 15:57:44,49.1447,56.4872,15.26,95,6,3.8
481,Ponta Delgada,PT,2021-03-31 15:57:44,37.7333,-25.6667,60.8,82,75,5.75
482,Itarema,BR,2021-03-31 15:57:45,-2.9248,-39.9167,83.68,73,94,10.76
483,Abu Kamal,SY,2021-03-31 15:57:45,34.4506,40.9171,74.68,13,5,5.97
484,Bandarbeyla,SO,2021-03-31 15:57:46,9.4942,50.8122,79.63,62,8,7.11
485,Ardon,RU,2021-03-31 15:57:21,43.17,44.29,44.6,70,75,6.71
486,Florida,US,2021-03-31 15:52:55,28.7505,-82.5001,84.0,61,40,5.75
487,Catuday,PH,2021-03-31 15:48:22,16.2923,119.8062,79.38,81,14,4.65
488,Cockburn Town,TC,2021-03-31 15:56:43,21.4612,-71.1419,78.8,73,40,14.97
489,Otukpo,NG,2021-03-31 15:57:48,7.1913,8.1329,100.31,8,99,5.75
490,Kasulu,TZ,2021-03-31 15:57:48,-4.5767,30.1025,77.0,73,75,2.48
491,Te Anau,NZ,2021-03-31 15:57:48,-45.4167,167.7167,43.34,94,17,2.95
492,Constitucion,CL,2021-03-31 15:54:16,-35.3333,-72.4167,67.12,60,73,6.44
493,Shaowu,CN,2021-03-31 15:57:49,27.3409,117.4831,70.02,94,90,2.21
494,Lodja,CD,2021-03-31 15:57:50,-3.4833,23.4333,77.92,74,60,2.73
495,Vao,NC,2021-03-31 15:57:50,-22.6667,167.4833,75.96,76,100,18.19
496,Chuzhou,CN,2021-03-31 15:57:51,32.3219,118.2978,57.0,87,100,1.99
497,Gigmoto,PH,2021-03-31 15:57:51,13.7796,124.39,79.9,83,100,8.28
498,Northam,GB,2021-03-31 15:48:19,51.0333,-4.2167,62.01,85,15,4.0
499,Chaman,PK,2021-03-31 15:57:52,30.9236,66.4512,62.2,15,0,5.59
500,Colquechaca,BO,2021-03-31 15:57:53,-18.6667,-66.0167,40.91,67,85,5.73
501,Bayangol,RU,2021-03-31 15:57:54,50.6977,103.4656,26.38,87,90,2.17
502,Nantucket,US,2021-03-31 15:57:54,41.2835,-70.0995,53.6,82,1,16.11
503,Kampot,KH,2021-03-31 15:57:55,10.6167,104.1833,82.4,78,20,6.91
504,Sorgun,TR,2021-03-31 15:57:56,39.8101,35.186,41.59,82,100,11.12
505,Wiwili,NI,2021-03-31 15:57:57,13.6268,-85.8254,68.0,100,90,8.77
506,Ust-Omchug,RU,2021-03-31 15:57:58,61.15,149.6333,8.51,96,100,5.14
507,Amapa,BR,2021-03-31 15:57:59,1.0,-52.0,79.54,87,95,4.16
508,Virtsu,EE,2021-03-31 15:58:00,58.5716,23.5115,39.0,85,100,7.0
509,Santa Maria Da Boa Vista,BR,2021-03-31 15:58:01,-8.8078,-39.8256,93.33,36,86,5.14
510,Barmer,IN,2021-03-31 15:58:02,25.75,71.3833,81.84,3,1,9.48
511,Tecoanapa,MX,2021-03-31 15:58:02,16.5167,-98.75,86.27,41,8,4.61
512,Zemio,CF,2021-03-31 15:58:03,5.0314,25.1361,88.79,33,94,2.48
513,Fayaoue,NC,2021-03-31 15:58:03,-20.65,166.5333,79.11,72,100,20.87
514,Pierre,US,2021-03-31 15:58:04,44.3683,-100.351,37.0,40,90,11.5
515,Midland,US,2021-03-31 15:57:09,31.9974,-102.0779,54.0,22,1,20.71
516,Temiscaming,CA,2021-03-31 15:58:05,46.7212,-79.0971,37.4,87,100,3.44
517,Chapais,CA,2021-03-31 15:58:05,49.7834,-74.8492,33.8,93,90,8.05
518,Manono,CD,2021-03-31 15:58:06,-7.3,27.4167,72.23,89,94,1.68
519,Sitka,US,2021-03-31 15:58:06,57.0531,-135.33,37.4,93,90,12.66
520,Ust-Kan,RU,2021-03-31 15:58:07,50.9276,84.761,19.89,86,74,2.84
521,Pecanha,BR,2021-03-31 15:58:07,-18.5486,-42.5569,82.51,55,0,3.65
522,Aklavik,CA,2021-03-31 15:58:07,68.2191,-135.0107,-5.8,77,90,8.05
523,Fowa,NG,2021-03-31 15:58:08,8.9167,6.4,102.79,12,93,5.06
524,Kincardine,GB,2021-03-31 15:58:09,56.0667,-3.7167,45.0,93,90,20.71
525,Djibo,BF,2021-03-31 15:58:09,14.1022,-1.6306,99.97,8,11,11.92
526,Sayan,PE,2021-03-31 15:58:10,-11.1361,-77.1933,79.74,60,27,8.57
527,Khandbari,NP,2021-03-31 15:58:10,27.3747,87.2039,63.1,80,95,4.09
528,Vilyuysk,RU,2021-03-31 15:58:10,63.7553,121.6247,14.76,87,99,8.19
529,Dovolnoye,RU,2021-03-31 15:58:11,54.4958,79.6671,18.09,94,90,9.22
530,Conceicao Do Araguaia,BR,2021-03-31 15:58:12,-8.2578,-49.2647,87.87,61,87,3.91
531,Pangai,TO,2021-03-31 15:58:12,-19.8,-174.35,81.81,76,6,18.72
532,Bela Vista,BR,2021-03-31 15:58:13,-22.1089,-56.5211,89.51,33,24,6.38
533,Jiexiu,CN,2021-03-31 15:58:13,37.0244,111.9125,52.32,65,83,3.42
534,Nome,US,2021-03-31 15:58:14,64.5011,-165.4064,-7.6,84,1,8.05
535,Salo,IT,2021-03-31 15:58:14,45.6086,10.531,77.0,27,0,4.61
536,Lorengau,PG,2021-03-31 15:58:15,-2.0226,147.2712,80.58,77,100,2.51
537,Gamboma,CG,2021-03-31 15:58:15,-1.8764,15.8644,79.65,78,69,4.81
538,Taoudenni,ML,2021-03-31 15:58:15,22.6783,-3.9836,100.13,3,84,12.37
539,Fukue,JP,2021-03-31 15:58:16,32.6881,128.8419,59.76,67,100,16.71
540,Ballsh,AL,2021-03-31 15:58:16,40.5989,19.7347,58.39,63,29,5.5
541,Uruguaiana,BR,2021-03-31 15:58:17,-29.7547,-57.0883,77.0,61,20,10.36
542,Klenovyy,UA,2021-03-31 15:58:17,48.1193,39.4588,44.47,67,6,6.89
543,Sarangani,PH,2021-03-31 15:58:18,5.4033,125.4636,81.9,77,100,9.08
544,Banjar,ID,2021-03-31 15:58:19,-8.19,114.9675,80.6,94,20,5.75
545,Henties Bay,NA,2021-03-31 15:58:19,-22.116,14.2845,64.99,86,7,8.99
546,Diphu,IN,2021-03-31 15:58:20,25.8333,93.4333,67.01,88,23,3.6
547,Shizunai,JP,2021-03-31 15:58:21,42.3339,142.3669,39.54,84,0,13.09
548,Yar-Sale,RU,2021-03-31 15:58:21,66.8333,70.8333,9.79,92,100,21.83
549,Corinto,GR,2021-03-31 15:57:47,37.9407,22.9573,57.0,43,52,15.01
550,Asyut,EG,2021-03-31 15:58:22,27.181,31.1837,69.8,32,0,13.8
551,Comodoro Rivadavia,AR,2021-03-31 15:58:05,-45.8667,-67.5,53.6,87,90,8.05
552,Zarubino,RU,2021-03-31 15:58:23,42.63,131.0922,41.65,68,2,4.16
553,Porto Santo,PT,2021-03-31 15:58:23,33.072,-16.3415,66.2,63,40,16.11
554,Dzilam Gonzalez,MX,2021-03-31 15:58:23,21.2833,-88.9333,88.2,46,18,6.2
555,Haines Junction,CA,2021-03-31 15:58:24,60.7522,-137.5108,26.6,80,87,2.3
556,Zambezi,ZM,2021-03-31 15:58:24,-13.5432,23.1047,72.18,73,80,6.11
557,Vanderhoof,CA,2021-03-31 15:58:25,54.0166,-124.0198,36.5,75,100,5.64
558,Puerto Asis,CO,2021-03-31 15:58:25,0.5133,-76.5007,75.2,100,90,2.3
559,Sao Jose Da Coroa Grande,BR,2021-03-31 15:58:26,-8.8978,-35.1478,84.47,68,80,10.07
560,Cherat,PK,2021-03-31 15:58:26,33.8233,71.8915,80.6,8,0,36.82
561,Half Moon Bay,US,2021-03-31 15:58:27,37.4636,-122.4286,59.0,50,1,7.47
562,Pau Brasil,BR,2021-03-31 15:58:27,-15.4642,-39.6511,98.47,29,100,3.31
563,Atambua,ID,2021-03-31 15:58:28,-9.1061,124.8925,72.48,90,87,1.68
564,Sorong,ID,2021-03-31 15:58:28,-0.8833,131.25,81.77,78,98,7.94
565,Strezhevoy,RU,2021-03-31 15:58:29,60.7333,77.5889,21.2,73,75,11.18
566,Hualmay,PE,2021-03-31 15:58:29,-11.0964,-77.6139,72.45,78,66,8.77
567,Abha,SA,2021-03-31 15:58:30,18.2164,42.5053,75.2,35,40,9.22
568,Lusambo,CD,2021-03-31 15:58:30,-4.9667,23.45,72.52,95,94,2.08
569,Ushtobe,KZ,2021-03-31 15:58:30,45.2514,77.9838,39.16,60,77,8.1
570,Sisimiut,GL,2021-03-31 15:58:31,66.9395,-53.6735,21.56,67,99,20.36
571,Ozinki,RU,2021-03-31 15:58:31,51.1786,49.6769,31.68,97,74,9.95
572,Marfino,RU,2021-03-31 15:58:32,55.7028,37.3822,41.0,100,90,8.95
573,Gushikawa,JP,2021-03-31 15:58:32,26.3544,127.8686,73.4,94,1,9.22
574,Mpika,ZM,2021-03-31 15:58:33,-11.8343,31.4529,60.4,95,70,5.39
575,Zhezkazgan,KZ,2021-03-31 15:58:33,47.8043,67.7144,25.81,83,100,15.57
576,Kloulklubed,PW,2021-03-31 15:58:34,7.0419,134.2556,77.0,100,75,3.44
577,Richards Bay,ZA,2021-03-31 15:58:34,-28.783,32.0377,76.21,79,0,7.81
578,Kibaya,TZ,2021-03-31 15:58:35,-5.3,36.5667,60.8,95,51,4.59
579,Cabedelo,BR,2021-03-31 15:58:35,-6.9811,-34.8339,87.8,66,75,11.5
580,Fairbanks,US,2021-03-31 15:57:58,64.8378,-147.7164,19.4,93,90,4.61
581,Minot,US,2021-03-31 15:58:36,48.2325,-101.2963,21.2,53,1,10.36
582,Dese,ET,2021-03-31 15:58:36,11.1333,39.6333,58.68,39,50,4.72
583,San Rafael,AR,2021-03-31 15:58:37,-34.6177,-68.3301,75.79,35,5,10.83
584,Candido Mendes,BR,2021-03-31 15:58:37,-1.4467,-45.7167,85.06,68,100,4.74
585,Gillette,US,2021-03-31 15:58:38,44.2911,-105.5022,33.01,51,1,16.11
586,Cartagena,CO,2021-03-31 15:58:38,10.3997,-75.5144,87.8,66,40,5.75
587,Mnogovershinnyy,RU,2021-03-31 15:58:39,53.9353,139.9242,21.29,89,100,2.93
588,Conil,FR,2021-03-31 15:58:39,44.9673,3.7177,60.3,31,0,8.48
589,Le Mars,US,2021-03-31 15:58:40,42.7942,-96.1656,30.99,37,1,17.27
590,Birjand,IR,2021-03-31 15:58:40,32.8663,59.2211,66.2,7,0,6.91
591,Beinamar,TD,2021-03-31 15:58:41,8.6698,15.3813,97.12,7,92,7.4
592,Shiraz,IR,2021-03-31 15:58:41,29.6036,52.5388,73.4,15,1,4.61
593,Goderich,CA,2021-03-31 15:58:42,43.7501,-81.7165,39.2,81,44,11.5
594,Cananeia,BR,2021-03-31 15:58:42,-25.0147,-47.9267,75.31,67,16,6.91
595,Marang,MY,2021-03-31 15:58:42,5.2056,103.2059,82.4,89,20,2.3
596,Uyuni,BO,2021-03-31 15:58:43,-20.4597,-66.825,58.91,40,94,12.44
597,Bollnas,SE,2021-03-31 15:58:43,61.3482,16.3946,46.99,45,96,1.01
598,Manama,BH,2021-03-31 15:56:15,26.2154,50.5832,77.0,31,0,4.61
599,Bairnsdale,AU,2021-03-31 15:58:44,-37.8333,147.6167,52.0,95,75,3.2
600,Luanda,AO,2021-03-31 15:55:15,-8.8368,13.2343,86.0,66,20,9.22
601,Antofagasta,CL,2021-03-31 15:58:45,-23.65,-70.4,73.0,68,20,8.05
602,Nampula,MZ,2021-03-31 15:58:45,-15.1165,39.2666,78.8,61,20,10.36
603,Bagan,RU,2021-03-31 15:58:46,54.1001,77.6646,15.4,95,92,7.87
604,Viedma,AR,2021-03-31 15:58:46,-40.8135,-62.9967,77.58,25,77,6.91
605,Bolshoye Murashkino,RU,2021-03-31 15:58:47,55.7826,44.7754,33.49,98,100,18.75
606,Kokoda,PG,2021-03-31 15:58:47,-8.8785,147.7407,74.98,94,100,0.63
607,Nyaunglebin,MM,2021-03-31 15:58:47,17.95,96.7333,79.83,66,7,7.38
608,Tolaga Bay,NZ,2021-03-31 15:58:48,-38.3667,178.3,61.27,91,12,5.7
609,Moree,AU,2021-03-31 15:58:48,-29.4667,149.85,60.8,72,0,9.22
610,Ixtapa,MX,2021-03-31 15:58:49,20.7,-105.2,71.6,46,20,3.27
611,Coulommiers,FR,2021-03-31 15:58:50,48.8145,3.085,77.0,31,0,1.01
612,Inhambane,MZ,2021-03-31 15:58:50,-23.865,35.3833,73.85,71,1,8.52
613,Port Augusta,AU,2021-03-31 15:58:51,-32.5,137.7667,60.01,72,0,4.61
614,Grafton,US,2021-03-31 15:58:52,42.207,-71.6856,63.0,63,90,26.46
615,Manta,EC,2021-03-31 15:57:17,-0.95,-80.7333,80.6,78,90,2.3
616,Broken Hill,AU,2021-03-31 15:58:07,-31.95,141.4333,64.4,29,0,4.61
617,Lasa,IT,2021-03-31 15:58:53,46.6166,10.7002,78.8,36,0,3.44
618,Noumea,NC,2021-03-31 15:58:54,-22.2763,166.4572,80.01,78,90,3.44
619,Mackay,AU,2021-03-31 15:58:55,-21.15,149.2,75.2,78,75,24.16
620,Belmonte,BR,2021-03-31 15:58:55,-15.8631,-38.8828,87.8,58,40,12.66
621,Gunupur,IN,2021-03-31 15:58:56,19.0833,83.8167,84.38,54,7,4.52
622,Dicabisagan,PH,2021-03-31 15:58:56,17.0818,122.4157,78.06,85,67,4.63
623,Semey,KZ,2021-03-31 15:58:57,50.4111,80.2275,23.79,88,64,4.97
624,College Station,US,2021-03-31 15:58:57,30.628,-96.3344,62.6,59,90,16.11
625,Prnjavor,BA,2021-03-31 15:55:01,44.8703,17.6628,69.8,43,0,5.75
626,Durango,MX,2021-03-31 15:54:55,24.8333,-104.8333,69.93,12,85,8.86
627,Qaqortoq,GL,2021-03-31 15:58:58,60.7167,-46.0333,37.4,81,75,1.14
628,Rudbar,AF,2021-03-31 15:58:59,30.15,62.6,67.26,11,0,9.4
629,Muros,ES,2021-03-31 15:58:59,42.7762,-9.0603,82.0,41,74,5.99
630,Rorvik,NO,2021-03-31 15:59:00,64.8621,11.2373,42.8,75,75,8.05
631,Pacific Grove,US,2021-03-31 15:59:00,36.6177,-121.9166,62.01,35,1,6.91
632,Marystown,CA,2021-03-31 15:59:01,47.1666,-55.1483,31.93,50,3,1.86
633,Quang Ngai,VN,2021-03-31 15:59:02,15.1167,108.8,74.7,90,31,6.6
634,Godda,IN,2021-03-31 15:59:02,24.8333,87.2167,82.65,10,0,3.67
635,Chernushka,RU,2021-03-31 15:59:03,56.5072,56.0766,30.47,86,100,20.94
636,Westport,US,2021-03-31 15:59:03,41.1415,-73.3579,59.0,71,90,6.91
637,Savannah Bight,HN,2021-03-31 15:59:04,16.45,-85.85,84.0,74,40,8.05
638,Dashitou,CN,2021-03-31 15:59:04,43.3067,128.5114,39.97,61,23,2.59
639,Mokhotlong,LS,2021-03-31 15:59:05,-29.2894,29.0675,59.92,48,100,5.99
640,Shirvan,AZ,2021-03-31 15:59:05,39.9509,48.8994,53.67,56,97,8.19
641,Deputatskiy,RU,2021-03-31 15:59:06,69.3,139.9,-13.41,95,51,3.53
642,Pitea,SE,2021-03-31 15:59:06,65.3172,21.4794,46.4,46,0,16.11
643,Seymchan,RU,2021-03-31 15:59:07,62.8833,152.4333,9.72,91,100,5.93
644,Dwarka,IN,2021-03-31 15:59:07,22.2394,68.9678,79.79,76,9,13.44
645,Puri,IN,2021-03-31 15:59:08,19.8,85.85,82.4,94,20,5.75
646,Umm Kaddadah,SD,2021-03-31 15:59:09,13.6017,26.6876,84.97,10,1,12.12
647,Inongo,CD,2021-03-31 15:59:09,-1.95,18.2667,74.64,86,98,4.25
648,Tiarei,PF,2021-03-31 15:59:09,-17.5333,-149.3333,77.0,83,20,4.61
649,Derzhavinsk,KZ,2021-03-31 15:59:10,51.1,66.3167,7.5,99,7,2.68
650,Bowen,AU,2021-03-31 15:59:11,-20.0167,148.2333,69.8,94,75,12.66
651,Khartoum,SD,2021-03-31 15:54:22,15.5518,32.5324,89.73,8,7,14.54
652,Baracoa,CU,2021-03-31 15:59:12,20.3467,-74.4958,82.31,65,52,13.8
653,High Level,CA,2021-03-31 15:59:14,58.5169,-117.136,15.8,86,90,3.02
654,Mormugao,IN,2021-03-31 15:59:14,15.4,73.8,84.2,70,20,9.22
655,Hofn,IS,2021-03-31 15:59:14,64.2539,-15.2082,41.0,60,0,8.05
656,Austin,US,2021-03-31 15:48:38,30.2672,-97.7431,61.0,55,90,8.05
657,Bad Hofgastein,AT,2021-03-31 15:59:15,47.1667,13.1,63.0,40,13,1.39
658,Gizo,SB,2021-03-31 15:59:16,-8.103,156.8419,81.23,76,44,3.67
659,Ambon,ID,2021-03-31 15:59:16,-3.6954,128.1814,81.59,77,80,4.65
660,Pimentel,PE,2021-03-31 15:59:17,-6.8367,-79.9342,78.8,61,0,8.05
661,Hayden,US,2021-03-31 15:59:18,47.766,-116.7866,41.0,69,1,3.44
662,Kieta,PG,2021-03-31 15:59:20,-6.2167,155.6333,78.31,84,42,2.77
663,Turayf,SA,2021-03-31 15:59:20,31.6725,38.6637,68.0,28,0,16.11
664,Alekseyevsk,RU,2021-03-31 15:59:21,57.8406,108.3492,25.18,85,99,12.44
665,Izhma,RU,2021-03-31 15:59:21,65.0083,53.9113,31.91,93,99,6.89
666,Gerash,IR,2021-03-31 15:59:22,27.6652,54.1371,87.8,18,0,4.61
667,Bintulu,MY,2021-03-31 15:59:22,3.1667,113.0333,77.0,94,20,1.16
668,Erzin,TR,2021-03-31 15:59:23,36.9559,36.2,62.01,74,49,4.0
669,Petropavlovka,RU,2021-03-31 15:59:24,50.6114,105.3196,31.48,62,100,3.27
670,Maningrida,AU,2021-03-31 15:59:24,-12.0667,134.2667,76.08,83,100,8.84
671,Victor Harbor,AU,2021-03-31 15:59:25,-35.5667,138.6167,68.0,59,83,5.7
672,Opuwo,NA,2021-03-31 15:59:25,-18.0607,13.84,73.65,62,63,13.27
673,Lima,PE,2021-03-31 15:55:05,-12.0432,-77.0282,75.0,68,0,6.91
674,Kondinskoye,RU,2021-03-31 15:59:27,59.6481,67.41,34.72,79,100,18.88
675,Allapalli,IN,2021-03-31 15:59:27,19.4167,80.0667,89.15,13,4,2.13
676,Pokosnoye,RU,2021-03-31 15:59:28,55.5258,101.0536,24.73,87,100,8.39
677,La Ronge,CA,2021-03-31 15:59:28,55.1001,-105.2842,14.0,73,97,5.75
678,Letka,RU,2021-03-31 15:59:29,59.6011,49.4232,33.87,93,99,10.2
679,Aleksandriyskaya,RU,2021-03-31 15:59:29,44.2272,43.3453,42.8,81,40,11.18
680,Calabozo,VE,2021-03-31 15:57:12,8.9242,-67.4293,93.02,32,100,11.59
681,Yei,SS,2021-03-31 15:59:30,4.095,30.6779,75.79,65,78,8.32
682,Cambridge,CA,2021-03-31 15:59:19,43.3601,-80.3127,45.0,70,90,17.27
683,Egvekinot,RU,2021-03-31 15:59:31,66.3167,-179.1667,-13.83,93,30,6.53
684,Coahuayana,MX,2021-03-31 15:59:31,18.7333,-103.6833,75.2,50,75,3.87
685,Linxia,CN,2021-03-31 15:59:32,35.6003,103.2064,35.85,96,100,1.63
686,Vavozh,RU,2021-03-31 15:59:32,56.7751,51.931,32.38,97,100,17.69
687,Nagato,JP,2021-03-31 15:59:33,34.3833,131.2,53.6,66,0,6.91
688,Boras,SE,2021-03-31 15:59:33,57.721,12.9401,51.01,81,75,9.22
689,Mogadishu,SO,2021-03-31 15:55:02,2.0371,45.3438,80.89,74,46,14.12
690,Ocosingo,MX,2021-03-31 15:59:34,17.0667,-92.25,80.6,69,1,3.96
691,Galle,LK,2021-03-31 15:59:35,6.0367,80.217,80.55,83,98,6.46
692,Mirabad,AF,2021-03-31 15:59:35,30.4362,61.8383,67.95,13,0,15.1
693,Porlamar,VE,2021-03-31 15:59:36,10.958,-63.8491,79.77,73,66,18.59
694,Creston,US,2021-03-31 15:59:36,41.0586,-94.3614,36.0,35,1,24.16
695,Souris,CA,2021-03-31 15:59:37,49.6172,-100.2612,19.0,79,20,6.91
696,Ozernovskiy,RU,2021-03-31 15:59:38,51.5,156.5167,36.12,89,100,8.12
697,Ostersund,SE,2021-03-31 15:59:38,63.1792,14.6357,39.0,70,75,13.8
698,Hede,CN,2021-03-31 15:59:39,33.7681,120.2517,50.25,92,100,11.54
699,Bolitoc,PH,2021-03-31 15:59:39,15.7395,119.8769,79.41,79,15,5.23
700,Bima,ID,2021-03-31 15:59:40,-8.4667,118.7167,75.81,95,100,0.96
701,Tateyama,JP,2021-03-31 15:59:40,34.9833,139.8667,57.99,75,99,1.99
702,Leshukonskoye,RU,2021-03-31 15:59:41,64.8989,45.7622,32.05,91,100,9.15
703,Naron,ES,2021-03-31 15:59:41,43.5167,-8.1528,80.01,41,0,5.75
704,Slave Lake,CA,2021-03-31 15:55:04,55.2834,-114.769,37.4,65,90,13.8
705,La Romana,DO,2021-03-31 15:59:35,18.4273,-68.9728,78.8,50,75,9.22
706,Kulevcha,UA,2021-03-31 15:59:42,46.0303,29.9361,46.9,58,21,6.2
707,Jumla,NP,2021-03-31 15:59:43,29.2747,82.1838,47.01,50,21,6.29
708,Portoferraio,IT,2021-03-31 15:59:43,42.8115,10.3146,69.8,52,0,5.03
709,Seidu,SL,2021-03-31 15:59:44,9.0167,-10.6,95.9,22,100,3.89
710,Margate,GB,2021-03-31 15:59:44,51.3813,1.3862,68.0,52,0,7.65
711,Lyubech,UA,2021-03-31 15:59:45,51.7026,30.6569,51.89,87,100,10.47
712,Nichinan,JP,2021-03-31 15:59:46,31.6,131.3667,58.96,65,100,5.7
713,Kichera,RU,2021-03-31 15:59:47,55.9375,110.0997,22.46,94,100,3.4
714,Antalaha,MG,2021-03-31 15:59:47,-14.9003,50.2788,77.97,88,34,7.52
715,Camacha,PT,2021-03-31 15:59:48,33.0833,-16.3333,66.2,63,40,16.11
716,Baiyin,CN,2021-03-31 15:59:48,36.5583,104.2081,43.0,81,75,6.71
717,Oeiras Do Para,BR,2021-03-31 15:59:48,-2.0031,-49.8544,87.91,59,62,4.23
718,Dhidhdhoo,MV,2021-03-31 15:59:49,6.8833,73.1,83.97,72,20,7.14
719,Lambarene,GA,2021-03-31 15:59:50,-0.7001,10.2406,82.4,83,75,8.63
720,Baldone,LV,2021-03-31 15:59:50,56.7428,24.3944,50.0,76,90,4.61
721,Kokopo,PG,2021-03-31 15:59:51,-4.352,152.2633,77.7,83,98,3.56
722,Burns Lake,CA,2021-03-31 15:59:51,54.2331,-125.7533,32.0,74,100,5.14
723,Oussouye,SN,2021-03-31 15:59:52,12.485,-16.5469,96.8,57,0,9.22
724,Valparaiso,CL,2021-03-31 15:59:52,-33.0393,-71.6273,57.2,100,90,2.3
725,Saint-Augustin,CA,2021-03-31 15:59:53,51.226,-58.6502,29.62,85,44,11.48
726,Fairlie,GB,2021-03-31 15:59:53,55.756,-4.8556,48.99,84,100,4.0
727,Komsomolskiy,UZ,2021-03-31 15:59:54,40.4272,71.7189,51.8,37,75,9.22
728,Marsh Harbour,BS,2021-03-31 15:59:54,26.5412,-77.0636,77.56,69,7,16.44
729,Milan,IT,2021-03-31 15:57:03,45.4643,9.1895,78.01,31,0,3.44
730,Rio Branco,BR,2021-03-31 15:59:55,-9.9747,-67.81,82.4,69,40,1.14
731,Vestnes,NO,2021-03-31 15:59:56,62.6264,7.0884,42.8,65,40,9.22
732,Miles City,US,2021-03-31 15:59:56,46.4083,-105.8406,30.2,47,1,11.5
733,Thanh Hoa,VN,2021-03-31 15:58:39,19.8,105.7667,75.45,87,25,6.89
734,Puerto Narino,CO,2021-03-31 15:59:57,-3.7703,-70.3831,80.6,83,75,3.44
735,Tarko-Sale,RU,2021-03-31 15:59:57,64.9225,77.785,-8.28,80,46,11.83
736,Kyshtovka,RU,2021-03-31 15:59:58,56.555,76.6271,25.09,94,99,10.58
737,Agirish,RU,2021-03-31 15:59:58,61.9247,63.0231,30.87,94,100,11.05
738,Hastings,GB,2021-03-31 15:59:59,50.8552,0.5729,66.99,63,0,4.61
739,Salinas,US,2021-03-31 15:58:02,36.6777,-121.6555,59.0,50,1,13.8
740,Mindelo,CV,2021-03-31 16:00:00,16.8901,-24.9804,75.2,57,75,25.32
741,Esso,RU,2021-03-31 16:00:00,55.9333,158.7,24.28,93,100,3.74
742,Buraydah,SA,2021-03-31 16:00:01,26.326,43.975,93.2,22,0,6.91
743,Lodwar,KE,2021-03-31 16:00:03,3.1191,35.5973,91.29,33,92,13.87
744,Kattivakkam,IN,2021-03-31 16:00:05,13.2167,80.3167,84.2,84,20,9.22
745,Port-Gentil,GA,2021-03-31 16:00:07,-0.7193,8.7815,78.8,89,20,10.36
746,Tromso,NO,2021-03-31 16:00:09,69.6496,18.957,35.6,80,75,11.5
747,Wangqing,CN,2021-03-31 16:00:11,43.3218,129.7634,41.81,69,6,3.65
748,Eyl,SO,2021-03-31 16:00:11,7.9803,49.8164,78.49,58,0,7.38
749,Taltal,CL,2021-03-31 16:00:12,-25.4,-70.4833,68.54,67,69,6.87
750,Mutata,CO,2021-03-31 16:00:13,7.2441,-76.4356,87.96,68,100,3.71
751,Berbera,SO,2021-03-31 16:00:14,10.4396,45.0143,81.23,64,100,5.26
752,Bendigo,AU,2021-03-31 16:00:14,-36.7667,144.2833,57.99,46,27,2.13
753,Havelock,US,2021-03-31 16:00:15,34.8791,-76.9013,75.0,78,75,12.66
754,Gamba,GA,2021-03-31 16:00:16,-2.65,10.0,73.63,94,100,6.13
755,Petropavlovsk-Kamchatskiy,RU,2021-03-31 16:00:17,53.0452,158.6483,37.4,81,100,6.71
756,Lahat,ID,2021-03-31 16:00:16,-3.8,103.5333,73.24,98,91,2.51
757,Ikare,NG,2021-03-31 16:00:18,7.4913,5.2322,98.76,18,70,6.76
758,Uvarovka,RU,2021-03-31 16:00:19,55.5278,35.6061,42.75,97,100,11.43
759,Phuket,TH,2021-03-31 16:00:20,8.0,98.25,89.01,94,20,1.14
760,Phon,TH,2021-03-31 16:00:20,15.816,102.5998,91.0,70,24,7.78
761,Pontiac,US,2021-03-31 15:56:39,42.6389,-83.2911,46.99,49,20,14.97
762,San Ramon De La Nueva Oran,AR,2021-03-31 16:00:21,-23.1322,-64.326,73.99,78,100,1.16
763,Porto Novo,BJ,2021-03-31 16:00:22,6.4965,2.6036,89.6,70,20,12.66
764,Libacao,PH,2021-03-31 16:00:22,10.1825,122.9158,79.21,79,82,5.46
765,Camacupa,AO,2021-03-31 16:00:23,-12.0167,17.4833,68.95,85,75,3.04
766,Merauke,ID,2021-03-31 16:00:24,-8.4667,140.3333,77.43,90,100,9.69
767,Tandalti,SD,2021-03-31 16:00:24,13.0167,31.8667,87.8,10,27,9.35
768,Maglaj,BA,2021-03-31 16:00:26,44.5492,18.0967,64.4,48,75,2.3
769,Shenzhen,CN,2021-03-31 15:59:24,22.5455,114.0683,79.0,99,57,6.87
770,Beringovskiy,RU,2021-03-31 16:00:27,63.05,179.3167,-0.67,96,100,2.59
771,Yantal,RU,2021-03-31 16:00:27,56.8471,105.2542,25.3,89,81,11.36
772,Ahuimanu,US,2021-03-31 16:00:28,21.4447,-157.8378,73.4,73,90,5.75
773,Masvingo,ZW,2021-03-31 16:00:29,-20.0637,30.8277,66.34,46,67,7.76
774,Ventspils,LV,2021-03-31 16:00:29,57.3894,21.5606,44.6,93,90,6.91
775,Canon City,US,2021-03-31 16:00:30,38.441,-105.2424,42.8,26,1,14.97
776,Chirongui,YT,2021-03-31 16:00:30,-12.9319,45.1483,78.8,83,32,1.14
777,Mukhtolovo,RU,2021-03-31 16:00:31,55.4644,43.1953,33.57,97,100,14.32
778,Chebarkul,RU,2021-03-31 16:00:32,54.9749,60.3633,27.79,93,85,5.91
779,Humboldt,US,2021-03-31 16:00:32,40.6665,-123.9178,50.0,62,1,8.05
780,Ust-Nera,RU,2021-03-31 16:00:33,64.5667,143.2,-5.62,99,60,1.74
781,Farafangana,MG,2021-03-31 16:00:34,-22.8167,47.8333,73.69,82,18,6.91
782,Xiaoweizhai,CN,2021-03-31 16:00:34,26.1903,107.5125,68.61,64,45,4.18
783,Sijunjung,ID,2021-03-31 16:00:35,-0.6876,100.9537,71.91,95,100,3.67
784,Nioki,CD,2021-03-31 16:00:36,-2.7167,17.6833,74.84,88,100,2.19
785,Ingham,US,2021-03-31 16:00:36,42.6,-84.3833,41.0,52,40,13.8
786,Fatwa,IN,2021-03-31 16:00:37,25.5167,85.3167,75.2,35,0,6.17
787,Kaele,CM,2021-03-31 16:00:38,10.1092,14.4508,96.8,7,47,9.22
788,Havre-Saint-Pierre,CA,2021-03-31 16:00:38,50.2334,-63.5986,35.6,75,1,11.5
789,Erdenet,MN,2021-03-31 16:00:39,49.0333,104.0833,29.39,74,100,2.46
790,Darhan,MN,2021-03-31 16:00:40,49.4867,105.9228,35.17,57,100,6.15
791,Port Hardy,CA,2021-03-31 16:00:00,50.6996,-127.4199,42.8,100,75,7.25
792,Sao Mateus Do Maranhao,BR,2021-03-31 15:57:21,-4.0417,-44.475,84.87,71,100,2.44
793,Keti Bandar,PK,2021-03-31 16:00:41,24.1447,67.4497,82.09,54,0,16.6
794,Kiunga,PG,2021-03-31 16:00:42,-6.1219,141.2906,73.89,99,100,3.13
795,Manhattan,US,2021-03-31 15:57:07,40.7834,-73.9662,64.99,77,90,4.61
796,Atasu,KZ,2021-03-31 16:00:43,48.6814,71.6433,16.59,87,64,10.33
797,Whitehorse,CA,2021-03-31 16:00:43,60.7161,-135.0538,30.2,64,75,13.8
798,Gat,IL,2021-03-31 15:59:00,31.61,34.7642,64.0,47,12,7.56
799,Duku,NG,2021-03-31 16:00:45,11.2361,4.9073,101.89,9,54,8.37
800,Chumphon,TH,2021-03-31 16:00:45,10.3333,98.8333,72.27,94,98,1.3
801,West Bay,KY,2021-03-31 16:00:46,19.3667,-81.4167,84.2,70,40,11.5
802,Shiyan,CN,2021-03-31 16:00:47,32.6475,110.7781,52.9,92,100,4.34
803,Beisfjord,NO,2021-03-31 16:00:47,68.3751,17.5988,39.2,81,75,3.44
804,Spas-Demensk,RU,2021-03-31 16:00:48,54.4122,34.0226,44.96,97,100,8.97
805,Lugus,PH,2021-03-31 16:00:48,5.7036,120.8203,81.43,75,95,12.86
806,Meridian,US,2021-03-31 15:58:08,43.6121,-116.3915,41.0,55,1,3.44
807,Sechura,PE,2021-03-31 16:00:49,-5.5569,-80.8222,79.32,57,25,8.03
808,Krutikha,RU,2021-03-31 16:00:50,53.9599,81.2093,17.89,94,88,5.99
809,Mykhaylivka,UA,2021-03-31 16:00:51,47.2724,35.2224,51.8,62,0,6.71
810,Mbini,GQ,2021-03-31 16:00:51,1.574,9.6134,82.4,83,40,3.44
